lat,long,city,state,country,suburb
25.333,55.517,Sharjah,Ash Shāriqah,United Arab Emirates,
25.255,55.364,Dubai,Dubayy,United Arab Emirates,
24.433,54.651,Abu Dhabi,Abū Z̧aby,United Arab Emirates,
24.262,55.609,Al ‘Ayn,Abū Z̧aby,United Arab Emirates,
34.21,62.228,Herāt,Herāt,Afghanistan,
34.566,69.212,Kabul,Kābul,Afghanistan,
31.5,65.85,Kandahār,Kandahār,Afghanistan,
36.717,3.25,Algiers,Alger,Algeria,
30.567,2.867,El Golea,Ghardaïa,Algeria,
28.05,9.633,I-n-Amenas,Illizi,Algeria,
36.72,4.05,Tizi Ouzou,Tizi Ouzou,Algeria,
35.1,-1.85,Ahfir,Oriental,Morocco,
34.85,5.72,Biskra,Biskra,Algeria,
33.8,2.89,Laghouat,Laghouat,Algeria,
36.795,5.874,Jijel,Jijel,Algeria,
36.933,6.95,Skikda,Skikda,Algeria,
36.822,7.809,Annaba,Annaba,Algeria,
36.767,3.1,Boufarik,Blida,Algeria,
36.712,5.07,Bejaïa,Bejaïa,Algeria,
36.467,7.467,Guelma,Guelma,Algeria,
36.276,6.62,Constantine,Constantine,Algeria,
35.867,7.117,Oum el Bouaghi,Oum el Bouaghi,Algeria,
36.283,7.967,Souk Ahras,Souk Ahras,Algeria,
36.213,1.332,Chlef,Chlef,Algeria,
36.3,2.233,Tipasa,Tipaza,Algeria,
36.283,2.733,Médéa,Médéa,Algeria,
36.067,4.767,Bordj Bou Arreridj,Bordj Bou Arréridj,Algeria,
36.178,5.324,Sétif,Sétif,Algeria,
35.817,-0.267,Oran,Oran,Algeria,
35.883,0.117,Mostaganem,Mostaganem,Algeria,
35.7,-0.65,Es Senia,Oran,Algeria,
35.667,4.5,M’Sila,M’sila,Algeria,
35.55,6.183,Batna,Batna,Algeria,
35.432,8.121,Tébessa,Tébessa,Algeria,
35.624,-0.621,El Kerma,Oran,Algeria,
35.208,0.147,Mascara,Mascara,Algeria,
35.341,1.463,Tiaret,Tiaret,Algeria,
35.167,2.317,Zmalet Emir Abdelkader,Tiaret,Algeria,
35.333,4.206,Bou Saâda,M’sila,Algeria,
35.3,-1.35,Aïn Temouchent,Aïn Temouchent,Algeria,
35.2,-0.617,Sidi Bel Abbès,Sidi Bel Abbès,Algeria,
34.82,-1.77,Oujda-Angad,Oriental,Morocco,
35.017,-1.45,Tlemcen,Tlemcen,Algeria,
34.683,3.25,Djelfa,Djelfa,Algeria,
34.867,0.15,Saïda,Saïda,Algeria,
34.15,0.067,El Kheiter,El Bayadh,Algeria,
33.536,-0.242,Mecheria,Naama,Algeria,
33.667,1.0,El Bayadh,El Bayadh,Algeria,
33.068,6.089,Touggourt,Ouargla,Algeria,
33.267,-0.3,Naama,Naama,Algeria,
33.511,6.777,El Oued,El Oued,Algeria,
32.767,-0.6,Aïn Sefra,Naama,Algeria,
32.384,3.794,Ghardaïa,Ghardaïa,Algeria,
31.646,-2.27,Béchar,Béchar,Algeria,
31.917,5.413,Ouargla,Ouargla,Algeria,
31.673,6.14,Hassi Messaoud,Ouargla,Algeria,
30.133,-2.167,Beni Abbès,Béchar,Algeria,
29.717,6.7,Burj Umar Idris,Illizi,Algeria,
29.237,0.276,Timimoun,Adrar,Algeria,
27.838,-0.186,Adrar,Adrar,Algeria,
26.724,8.623,Illizi,Illizi,Algeria,
27.7,-8.167,Tindouf,Tindouf,Algeria,
24.293,9.452,Djanet,Illizi,Algeria,
41.55,46.667,Zaqatala,Zaqatala,Azerbaijan,
41.217,47.167,Şəki,Şəki,Azerbaijan,
41.367,48.517,Xaçmaz,Xaçmaz,Azerbaijan,
40.717,46.417,Gəncə,Gəncə,Azerbaijan,
40.983,47.867,Göyçay,Göyçay,Azerbaijan,
40.617,47.15,Mingəçevir,Mingəçevir,Azerbaijan,
40.65,47.75,Ağdaş,Ağdaş,Azerbaijan,
40.533,48.933,Şamaxı,Şamaxı,Azerbaijan,
39.767,47.75,İmişli,İmişli,Azerbaijan,
39.967,49.4,Ələt,Bakı,Azerbaijan,
39.4,49.25,Salyan,Salyan,Azerbaijan,
38.75,48.817,Lənkəran,Lənkəran,Azerbaijan,
38.5,48.9,Astara,Astara,Azerbaijan,
41.415,19.721,Tirana,Tiranë,Albania,
40.783,43.833,Gyumri,Shirak,Armenia,
40.533,44.383,Vanadzor,Lorri,Armenia,
40.817,44.5,Stepanavan,Lorri,Armenia,
40.867,45.15,Sevan,Geghark’unik’,Armenia,
40.133,44.05,Iğdır,Iğdır,Turkey,
40.483,44.75,Yerevan,Yerevan,Armenia,
40.35,45.133,Hrazdan,Kotayk’,Armenia,
39.533,46.017,Goris,Syunik’,Armenia,
39.2,46.433,Kapan,Syunik’,Armenia,
40.567,45.0,Charentsavan,Kotayk’,Armenia,
-8.85,13.233,Luanda,Luanda,Angola,
-14.933,13.567,Lubango,Huíla,Angola,
-14.331,-170.714,Pago Pago,,American Samoa,
-30.267,-57.65,Bella Unión,Artigas,Uruguay,
-22.1,-65.6,Villazón,Potosí,Bolivia,
-27.767,-64.3,Santiago del Estero,Santiago del Estero,Argentina,
-27.45,-59.05,Resistencia,Chaco,Argentina,
-29.383,-66.817,La Rioja,La Rioja,Argentina,
-29.883,-61.95,Ceres,Santa Fe,Argentina,
-29.183,-59.7,Reconquista,Santa Fe,Argentina,
-31.317,-64.217,Córdoba,Córdoba,Argentina,
-31.783,-60.483,Paraná,Entre Ríos,Argentina,
-32.833,-68.783,Godoy Cruz,Mendoza,Argentina,
-34.133,-63.367,Laboulaye,Córdoba,Argentina,
-36.567,-64.266,Santa Rosa,La Pampa,Argentina,
-37.933,-57.583,Mar del Plata,Buenos Aires,Argentina,
-38.95,-68.133,Neuquén,Neuquén,Argentina,
-42.933,-71.15,Esquel,"Buenos Aires, Ciudad Autónoma de",Argentina,
-43.2,-65.266,Trelew,Chubut,Argentina,
-45.783,-67.5,Comodoro Rivadavia,Chubut,Argentina,
-51.617,-69.283,Río Gallegos,Santa Cruz,Argentina,
-24.85,-65.483,Salta,Salta,Argentina,
-34.583,-58.483,Buenos Aires,"Buenos Aires, Ciudad Autónoma de",Argentina,
-38.733,-62.167,Bahía Blanca,Buenos Aires,Argentina,
-23.153,-64.329,San Ramón de la Nueva Orán,Salta,Argentina,
-22.62,-63.794,Tartagal,Salta,Argentina,
-24.393,-65.098,San Salvador de Jujuy,Jujuy,Argentina,
-26.841,-65.105,San Miguel de Tucumán,Tucumán,Argentina,
-26.733,-60.483,Presidencia Roque Sáenz Peña,Chaco,Argentina,
-26.213,-58.228,Formosa,Formosa,Argentina,
-27.446,-58.762,Corrientes,Corrientes,Argentina,
-27.386,-55.971,Posadas,Misiones,Argentina,
-28.596,-65.752,Catamarca,Catamarca,Argentina,
-29.9,-63.683,Villa de María,Córdoba,Argentina,Norte
-29.689,-57.152,Uruguaiana,Rio Grande do Sul,Brazil,
-31.571,-68.418,San Juan,San Juan,Argentina,
-30.367,-66.283,Chamical,La Rioja,Argentina,
-31.945,-65.146,Mina Clavero,Córdoba,Argentina,
-31.667,-63.883,Río Segundo,Córdoba,Argentina,
-31.297,-57.997,Concordia,Entre Ríos,Argentina,
-33.083,-68.417,San Martín,Mendoza,Argentina,
-33.273,-66.356,San Luis,San Luis,Argentina,
-33.73,-65.387,Villa Mercedes,San Luis,Argentina,
-33.085,-64.261,Río Cuarto,Córdoba,Argentina,
-32.684,-62.158,Marcos Juárez,Córdoba,Argentina,
-32.904,-60.785,Rosario,Santa Fe,Argentina,
-33.01,-58.613,Gualeguaychú,Entre Ríos,Argentina,
-35.494,-69.574,Malargüe,Mendoza,Argentina,
-34.588,-68.403,San Rafael,Mendoza,Argentina,
-35.696,-63.758,General Pico,La Pampa,Argentina,
-34.546,-60.931,Junín,Buenos Aires,Argentina,
-34.822,-58.536,Lanús,Buenos Aires,Argentina,
-34.559,-58.416,San Justo,Buenos Aires,Argentina,
-34.972,-57.895,La Plata,Buenos Aires,Argentina,
-36.833,-59.883,Azul,Buenos Aires,Argentina,
-37.237,-59.228,Tandil,Buenos Aires,Argentina,
-36.35,-57.733,Dolores,Buenos Aires,Argentina,
-38.387,-60.33,Tres Arroyos,Buenos Aires,Argentina,
-41.151,-71.158,San Carlos de Bariloche,Río Negro,Argentina,
-41.25,-68.733,,,,
-40.783,-65.1,San Antonio Oeste,Río Negro,Argentina,
-40.869,-63.0,Viedma,Río Negro,Argentina,
-41.943,-71.532,El Maitén,"Buenos Aires, Ciudad Autónoma de",Argentina,
-46.517,-71.017,Perito Moreno,Santa Cruz,Argentina,
-50.267,-72.05,El Calafate,Santa Cruz,Argentina,
-49.307,-67.803,San Julián,Santa Cruz,Argentina,
-53.778,-67.749,Río Grande,"Tierra del Fuego, Antártida e Islas del Atlántico Sur",Argentina,
-54.843,-68.296,Ushuaia,"Tierra del Fuego, Antártida e Islas del Atlántico Sur",Argentina,
-16.288,149.965,,,,
-31.542,159.079,Lord Howe Island,New South Wales,Australia,
-54.499,158.937,,,,
-15.51,128.15,Wyndham,Western Australia,Australia,
-13.754,126.148,,,,
-14.788,126.496,,,,
-15.487,128.125,Wyndham,Western Australia,Australia,Shire Of Wyndham-East Kimberley
-15.908,128.129,,,,
-16.418,126.102,,,,
-14.296,126.645,Kalumburu,Western Australia,Australia,Shire Of Wyndham-East Kimberley
-14.09,126.387,,,,
-16.009,127.981,,,,
-15.957,127.063,,,,
-15.38,126.311,,,,
-15.702,126.379,,,,
-15.639,128.08,Wyndham,Western Australia,Australia,Shire Of Wyndham-East Kimberley
-15.723,127.83,,,,
-13.96,127.196,,,,
-15.597,128.278,Wyndham,Western Australia,Australia,Shire Of Wyndham-East Kimberley
-16.504,128.917,,,,
-15.486,128.534,Kununurra,Western Australia,Australia,
-16.42,126.441,Ngallagunda,Western Australia,Australia,Shire Of Wyndham-East Kimberley
-18.229,127.664,Halls Creek,Western Australia,Australia,
-18.387,126.989,,,,
-18.016,126.303,,,,
-18.031,128.894,,,,
-18.596,127.642,Billiluna,Western Australia,Australia,Shire of Halls Creek
-19.162,128.163,,,,
-17.296,126.915,,,,
-17.016,128.218,Warmun,Western Australia,Australia,Shire of Halls Creek
-17.392,126.231,,,,
-18.337,126.124,,,,
-16.112,128.741,Lake Argyle,Western Australia,Australia,Shire Of Wyndham-East Kimberley
-17.263,127.462,,,,
-18.297,128.442,,,,
-18.195,127.815,,,,
-17.784,127.685,,,,
-17.613,126.744,,,,
-15.781,128.71,Kununurra,Western Australia,Australia,Shire Of Wyndham-East Kimberley
-16.04,128.415,,,,
-19.235,127.769,,,,
-16.638,128.452,Argyle Village,Western Australia,Australia,Shire Of Wyndham-East Kimberley
-15.982,128.999,,,,
-16.443,127.784,,,,
-17.277,122.571,,,,
-17.948,122.235,Broome,Western Australia,Australia,
-17.928,124.811,,,,
-18.355,125.303,,,,
-17.39,124.358,,,,
-18.291,125.587,,,,
-17.052,125.705,,,,
-18.122,124.269,,,,
-17.331,124.817,,,,
-18.5,124.399,,,,
-17.946,123.738,,,,
-17.615,123.648,,,,
-18.139,125.776,,,,
-19.254,121.486,,,,
-18.684,121.78,Bidyadanga,Western Australia,Australia,Shire Of Broome
-17.371,123.661,Derby,Western Australia,Australia,Shire Of Derby-West Kimberley
-17.747,124.528,,,,
-17.99,124.192,,,,
-17.692,122.713,,,,
-18.916,125.526,,,,
-16.737,125.909,Kupungarri,Western Australia,Australia,Shire Of Derby-West Kimberley
-16.451,123.009,Ardyaloon,Western Australia,Australia,Shire Of Broome
-19.086,121.676,,,,
-16.715,125.459,,,,
-18.518,121.807,,,,
-18.508,123.456,,,,
-16.687,123.838,,,,
-17.312,123.636,Derby,Western Australia,Australia,Karmulinunga
-17.574,123.822,,,,
-17.344,123.678,Derby,Western Australia,Australia,Shire Of Derby-West Kimberley
-17.728,123.655,,,,
-18.838,126.525,,,,
-17.798,124.077,,,,
-18.181,125.562,Fitzroy Crossing,Western Australia,Australia,Shire Of Derby-West Kimberley
-17.055,125.711,,,,
-17.95,124.265,,,,
-18.113,125.343,,,,
-20.926,120.208,Marble Bar,Western Australia,Australia,Shire of East Pilbara
-22.183,119.935,Nullagine,Western Australia,Australia,Shire of East Pilbara
-20.639,119.243,Marble Bar,Western Australia,Australia,Shire of East Pilbara
-20.176,119.191,,,,
-21.722,119.399,Nullagine,Western Australia,Australia,Shire of East Pilbara
-20.787,118.597,Port Hedland,Western Australia,Australia,
-19.742,120.844,,,,
-20.633,120.054,Marble Bar,Western Australia,Australia,Shire of East Pilbara
-22.291,120.176,Nullagine,Western Australia,Australia,Shire of East Pilbara
-20.108,119.581,,,,
-20.372,118.632,Port Hedland,Western Australia,Australia,Town Of Port Hedland
-21.056,117.444,Roebourne,Western Australia,Australia,
-20.468,119.056,,,,
-20.748,118.817,Marble Bar,Western Australia,Australia,Town Of Port Hedland
-20.947,117.373,,,,
-20.85,120.695,Marble Bar,Western Australia,Australia,Shire of East Pilbara
-20.674,120.204,Marble Bar,Western Australia,Australia,Shire of East Pilbara
-19.779,120.642,,,,
-20.71,116.774,Karratha,Western Australia,Australia,
-20.896,117.645,,,,
-20.759,117.158,Roebourne,Western Australia,Australia,City Of Karratha
-21.293,120.466,Marble Bar,Western Australia,Australia,Shire of East Pilbara
-21.176,119.75,Marble Bar,Western Australia,Australia,Shire of East Pilbara
-21.805,117.806,,,,
-22.912,116.29,,,,
-22.241,114.097,Exmouth,Western Australia,Australia,
-21.191,115.98,,,,
-22.633,119.408,Newman,Western Australia,Australia,Shire of East Pilbara
-21.996,115.046,Onslow,Western Australia,Australia,
-21.787,117.865,,,,
-21.669,115.109,Onslow,Western Australia,Australia,Shire Of Ashburton
-21.975,116.065,Pannawonica,Western Australia,Australia,
-22.242,118.336,,,,
-21.677,116.393,,,,
-22.456,116.051,,,,
-22.937,115.982,,,,
-21.159,116.12,,,,
-21.93,114.126,Exmouth,Western Australia,Australia,Shire Of Exmouth
-20.728,116.748,Karratha,Western Australia,Australia,City Of Karratha
-22.782,115.371,,,,
-21.639,116.331,Pannawonica,Western Australia,Australia,Shire Of Ashburton
-21.357,115.821,,,,
-21.344,115.936,,,,
-21.884,118.222,,,,
-21.767,114.821,,,,
-21.054,116.258,,,,
-22.885,117.446,Tom Price,Western Australia,Australia,
-21.248,116.073,,,,
-20.875,115.406,,,,
-22.937,116.973,,,,
-25.042,115.309,Gascoyne Junction,Western Australia,Australia,Shire Of Upper Gascoyne
-24.652,113.694,Carnarvon,Western Australia,Australia,
-25.048,114.029,,,,
-25.611,115.462,,,,
-24.888,113.67,Carnarvon,Western Australia,Australia,Shire Of Carnarvon
-24.806,114.432,,,,
-25.36,114.229,,,,
-25.054,115.21,Gascoyne Junction,Western Australia,Australia,Shire Of Upper Gascoyne
-23.822,113.526,,,,
-26.428,114.192,,,,
-25.044,115.133,,,,
-25.366,114.359,,,,
-23.382,114.438,,,,
-25.926,113.532,Denham,Western Australia,Australia,Shire Of Shark Bay
-26.697,113.716,,,,
-25.302,115.116,,,,
-27.746,115.829,,,,
-27.428,115.515,Murchison,Western Australia,Australia,Shire Of Murchison
-25.944,114.322,,,,
-25.491,114.398,,,,
-26.59,115.927,Murchison,Western Australia,Australia,Shire Of Murchison
-24.306,114.5,,,,
-23.031,115.041,,,,
-23.485,113.781,,,,
-24.397,113.406,,,,
-26.12,113.398,Useless Loop,Western Australia,Australia,Shire Of Shark Bay
-25.029,115.863,,,,
-26.894,115.956,Murchison,Western Australia,Australia,Shire Of Murchison
-26.176,113.215,,,,
-25.892,113.577,Denham,Western Australia,Australia,Shire Of Shark Bay
-25.038,115.995,,,,
-26.967,117.917,,,,
-26.042,116.953,,,,
-26.984,116.536,,,,
-28.784,117.362,,,,
-27.253,117.652,,,,
-27.423,117.899,Cue,Western Australia,Australia,Shire Of Cue
-24.002,119.572,,,,
-25.686,119.226,,,,
-28.273,117.154,Yalgoo,Western Australia,Australia,Shire Of Yalgoo
-28.249,116.34,Yalgoo,Western Australia,Australia,Shire Of Yalgoo
-26.114,117.505,Meekatharra,Western Australia,Australia,Shire of Meekatharra
-27.745,116.744,Yalgoo,Western Australia,Australia,Shire Of Yalgoo
-28.556,117.78,Mount Magnet,Western Australia,Australia,
-26.614,118.537,Meekatharra,Western Australia,Australia,
-27.422,116.825,Yalgoo,Western Australia,Australia,Shire Of Yalgoo
-26.374,117.334,,,,
-24.309,116.911,,,,
-27.879,117.551,,,,
-24.4,116.308,,,,
-24.23,118.241,,,,
-27.364,116.426,,,,
-28.652,117.608,,,,
-29.425,117.291,,,,
-29.189,117.922,Sandstone,Western Australia,Australia,Shire Of Sandstone
-26.56,118.54,Meekatharra,Western Australia,Australia,Shire of Meekatharra
-25.126,119.151,,,,
-28.893,117.133,,,,
-23.624,118.656,,,,
-27.088,116.161,Murchison,Western Australia,Australia,Shire Of Murchison
-24.651,116.165,,,,
-28.232,117.656,,,,
-27.981,116.035,,,,
-27.861,118.418,,,,
-27.131,118.78,Meekatharra,Western Australia,Australia,Shire of Meekatharra
-25.693,118.08,Meekatharra,Western Australia,Australia,Shire of Meekatharra
-26.282,118.693,Meekatharra,Western Australia,Australia,Shire of Meekatharra
-25.48,119.649,,,,
-23.996,117.522,,,,
-23.386,117.032,,,,
-25.281,116.208,,,,
-27.804,116.886,Yalgoo,Western Australia,Australia,Shire Of Yalgoo
-26.075,116.694,Murchison,Western Australia,Australia,Shire Of Murchison
-25.096,117.592,,,,
-26.795,118.984,Meekatharra,Western Australia,Australia,Shire of Meekatharra
-29.271,117.684,,,,
-26.594,118.488,Meekatharra,Western Australia,Australia,Shire of Meekatharra
-23.553,119.148,,,,
-27.549,118.217,Cue,Western Australia,Australia,Shire Of Cue
-26.263,119.764,Meekatharra,Western Australia,Australia,Shire of Meekatharra
-25.464,117.136,,,,
-23.764,116.12,,,,
-24.948,118.715,,,,
-23.417,119.799,Newman,Western Australia,Australia,
-23.604,117.689,,,,
-24.411,118.941,,,,
-23.978,120.011,,,,
-23.172,117.749,Paraburdoo,Western Australia,Australia,Shire Of Ashburton
-27.316,117.97,Sandstone,Western Australia,Australia,Shire Of Cue
-27.05,117.65,,,,
-26.078,116.153,Murchison,Western Australia,Australia,Shire Of Murchison
-28.282,118.311,,,,
-24.185,119.718,,,,
-25.694,116.538,Murchison,Western Australia,Australia,Shire Of Murchison
-28.116,117.842,Mount Magnet,Western Australia,Australia,Shire Of Mount Magnet
-30.597,116.771,Ballidu,Western Australia,Australia,Shire Of Wongan-Ballidu
-28.006,114.221,Kalbarri,Western Australia,Australia,
-30.729,116.02,,,,
-28.896,115.811,Morawa,Western Australia,Australia,
-30.583,116.135,Moora,Western Australia,Australia,Shire Of Moora
-30.629,116.386,,,,
-29.33,116.143,,,,
-30.219,116.778,Dalwallinu,Western Australia,Australia,Shire Of Dalwallinu
-30.445,117.041,,,,
-29.987,116.571,Buntine,Western Australia,Australia,Shire Of Dalwallinu
-30.291,116.331,Miling,Western Australia,Australia,Shire Of Moora
-29.689,115.887,Three Springs,Western Australia,Australia,
-28.501,114.79,Geraldton,Western Australia,Australia,
-29.882,116.023,Coorow,Western Australia,Australia,Shire Of Coorow
-29.253,114.931,Port Denison,Western Australia,Australia,
-30.913,116.809,Wongan Hills,Western Australia,Australia,Shire Of Wongan-Ballidu
-29.471,115.853,Perenjori,Western Australia,Australia,Shire Of Three Springs
-28.777,114.605,Geraldton,Western Australia,Australia,City Of Greater Geraldton
-28.795,114.698,Geraldton,Western Australia,Australia,City Of Greater Geraldton
-28.17,114.761,,,,
-29.549,115.069,,,,
-29.036,115.554,,,,
-30.284,116.633,Dalwallinu,Western Australia,Australia,Shire Of Dalwallinu
-30.672,116.308,,,,
-28.429,114.654,,,,
-30.701,117.061,Cadoux,Western Australia,Australia,Shire Of Wongan-Ballidu
-29.941,116.2,,,,
-29.759,116.444,Latham,Western Australia,Australia,Shire Of Perenjori
-28.21,114.305,,,,
-29.601,115.939,Carnamah,Western Australia,Australia,Shire Of Carnamah
-29.242,115.779,,,,
-29.071,115.626,,,,
-30.492,116.363,Miling,Western Australia,Australia,Shire Of Moora
-30.423,116.458,Miling,Western Australia,Australia,Shire Of Moora
-29.191,115.441,Mingenew,Western Australia,Australia,Shire of Mingenew
-28.537,115.514,Mullewa,Western Australia,Australia,City Of Greater Geraldton
-28.152,114.569,,,,
-28.346,114.637,Northampton,Western Australia,Australia,Shire of Northampton
-28.154,114.669,,,,
-29.369,116.406,,,,
-29.442,116.288,Perenjori,Western Australia,Australia,Shire Of Perenjori
-28.477,115.79,,,,
-27.832,114.736,Murchison,Western Australia,Australia,Shire of Northampton
-28.789,114.942,,,,
-29.534,115.763,Three Springs,Western Australia,Australia,Shire Of Three Springs
-28.554,115.246,,,,
-30.299,116.059,Watheroo,Western Australia,Australia,Shire Of Moora
-30.892,116.719,Wongan Hills,Western Australia,Australia,Shire Of Wongan-Ballidu
-30.107,116.633,Wubin,Western Australia,Australia,Shire Of Dalwallinu
-28.381,114.453,,,,
-29.287,115.633,,,,
-30.071,116.209,,,,
-28.325,114.959,,,,
-28.898,115.863,,,,
-28.547,114.624,,,,
-29.186,115.741,,,,
-30.658,116.934,,,,
-28.694,115.041,,,,
-30.622,116.379,,,,
-29.818,115.272,Eneabba,Western Australia,Australia,Shire Of Carnamah
-30.382,116.722,Pithara,Western Australia,Australia,Shire Of Dalwallinu
-29.467,116.132,Perenjori,Western Australia,Australia,Shire Of Perenjori
-29.485,116.07,Perenjori,Western Australia,Australia,Shire Of Perenjori
-28.568,115.281,,,,
-28.686,115.281,,,,
-30.099,116.234,,,,
-28.894,115.454,,,,
-27.712,114.165,Kalbarri,Western Australia,Australia,Shire of Northampton
-30.709,116.774,Kondut,Western Australia,Australia,Shire Of Wongan-Ballidu
-29.515,116.801,,,,
-28.811,115.968,,,,
-29.359,115.45,,,,
-28.419,114.819,,,,
-30.368,116.265,Watheroo,Western Australia,Australia,Shire Of Moora
-29.224,115.108,,,,
-30.072,115.314,,,,
-27.566,114.673,,,,
-30.145,116.384,Wubin,Western Australia,Australia,Shire Of Dalwallinu
-28.318,114.761,,,,
-28.275,114.676,,,,
-28.258,114.603,,,,
-28.301,113.594,,,,
-28.516,115.37,,,,
-28.209,115.285,,,,
-29.209,115.263,,,,
-29.204,116.025,Morawa,Western Australia,Australia,Shire of Morawa
-30.276,116.671,Dalwallinu,Western Australia,Australia,Shire Of Dalwallinu
-28.76,114.937,,,,
-29.11,115.317,,,,
-29.069,115.092,,,,
-28.957,114.949,,,,
-29.278,114.946,,,,
-28.064,115.19,,,,
-28.89,115.44,,,,
-28.8,115.76,Mullewa,Western Australia,Australia,City Of Greater Geraldton
-29.3,115.66,,,,
-29.029,115.555,,,,
-32.13,116.005,Perth,Western Australia,Australia,
-30.626,115.78,Dandaragan,Western Australia,Australia,Shire Of Dandaragan
-31.862,116.266,Bentley,Western Australia,Australia,
-31.605,116.111,Bullsbrook,Western Australia,Australia,
-32.149,116.076,Kwinana,Western Australia,Australia,
-30.697,115.582,Dandaragan,Western Australia,Australia,Shire Of Dandaragan
-32.089,116.125,Lesmurdie,Western Australia,Australia,
-31.346,115.903,Yanchep,Western Australia,Australia,
-31.928,115.976,Fremantle,Western Australia,Australia,
-32.334,116.076,Mandurah,Western Australia,Australia,
-31.561,116.084,Gingin,Western Australia,Australia,
-31.869,116.017,Cannington,Western Australia,Australia,
-31.897,116.158,,,,
-31.956,116.164,,,,
-30.972,116.209,,,,
-30.338,115.539,Badgingarra,Western Australia,Australia,Shire Of Dandaragan
-32.354,116.005,Serpentine,Western Australia,Australia,Shire of Serpentine-Jarrahdale
-31.143,116.054,,,,
-32.197,116.062,,,,
-31.667,116.019,Bullsbrook,Western Australia,Australia,City of Swan
-31.809,116.0,,,,
-31.791,116.198,Gidgegannup,Western Australia,Australia,City of Swan
-31.732,115.793,,,,
-32.049,115.984,,,,
-32.44,116.074,Serpentine,Western Australia,Australia,Keysbrook
-31.393,116.088,Bindoon,Western Australia,Australia,Shire Of Chittering
-32.111,116.095,,,,
-31.016,115.33,Lancelin,Western Australia,Australia,Shire Of Gingin
-32.402,116.104,Jarrahdale,Western Australia,Australia,Shire of Serpentine-Jarrahdale
-30.308,115.031,Jurien Bay,Western Australia,Australia,Shire Of Dandaragan
-31.851,116.254,Chidlow,Western Australia,Australia,Shire of Mundaring
-31.077,115.508,,,,
-31.329,116.081,,,,
-31.956,115.793,,,,
-32.119,116.121,,,,
-32.101,115.879,,,,
-31.123,115.447,,,,
-31.463,115.864,,,,
-30.799,115.547,,,,
-31.954,116.001,,,,
-32.053,115.765,Fremantle,Western Australia,Australia,
-32.007,115.502,,,,
-32.221,115.808,,,,
-29.949,114.978,Leeman,Western Australia,Australia,Shire Of Coorow
-31.834,116.22,Mount Helena,Western Australia,Australia,Shire of Mundaring
-32.038,116.126,,,,
-32.021,116.117,,,,
-30.893,115.579,,,,
-30.289,115.32,,,,
-31.956,115.762,,,,
-32.039,116.066,,,,
-31.919,115.873,,,,
-32.006,116.136,,,,
-32.396,115.974,Serpentine,Western Australia,Australia,Shire of Serpentine-Jarrahdale
-30.944,116.499,Yerecoin,Western Australia,Australia,Shire Of Victoria Plains
-31.332,115.951,,,,
-31.768,116.248,Gidgegannup,Western Australia,Australia,City of Swan
-32.391,115.849,,,,
-32.243,115.684,,,,
-32.157,115.928,,,,
-32.216,115.876,,,,
-32.47,116.214,,,,
-31.837,115.95,,,,
-31.708,115.724,,,,
-30.574,115.223,,,,
-35.029,117.881,Albany,Western Australia,Australia,
-33.832,116.389,Collie,Western Australia,Australia,
-33.786,115.981,Bunbury,Western Australia,Australia,
-34.468,116.917,Rocky Gully,Western Australia,Australia,Shire Of Plantagenet
-32.684,116.519,,,,
-32.805,116.471,Boddington,Western Australia,Australia,Shire Of Boddington
-33.214,115.85,Australind,Western Australia,Australia,
-33.661,115.346,Busselton,Western Australia,Australia,
-34.373,115.136,Margaret River,Western Australia,Australia,
-33.537,115.019,Dunsborough,Western Australia,Australia,
-34.609,118.751,Wellstead,Western Australia,Australia,City Of Albany
-34.973,117.267,Mount Barker,Western Australia,Australia,
-33.397,115.783,Dardanup,Western Australia,Australia,Shire Of Dardanup
-34.377,116.414,Manjimup,Western Australia,Australia,
-34.962,117.357,Denmark,Western Australia,Australia,Shire Of Denmark
-34.953,117.373,,,,
-33.572,115.825,Donnybrook,Western Australia,Australia,Shire Of Donnybrook-Balingup
-32.71,116.059,Dwellingup,Western Australia,Australia,Shire of Murray
-33.682,121.828,Esperance,Western Australia,Australia,
-34.072,115.099,,,,
-35.015,117.758,Elleker,Western Australia,Australia,City Of Albany
-33.856,116.055,Greenbushes,Western Australia,Australia,Shire Of Bridgetown-Greenbushes
-33.978,116.334,,,,
-34.91,117.994,,,,
-34.488,117.628,Kendenup,Western Australia,Australia,Shire Of Plantagenet
-32.503,115.766,City of Mandurah,Western Australia,Australia,
-34.251,116.145,Manjimup,Western Australia,Australia,Shire Of Manjimup
-33.959,115.064,Margaret River,Western Australia,Australia,Shire Of Augusta Margaret River
-32.856,116.45,Boddington,Western Australia,Australia,Shire Of Boddington
-33.763,122.068,,,,
-34.625,117.636,Mount Barker,Western Australia,Australia,Shire Of Plantagenet
-33.742,121.995,Condingup,Western Australia,Australia,Shire Of Esperance
-33.98,115.766,Nannup,Western Australia,Australia,Shire Of Nannup
-33.997,116.425,,,,
-34.992,116.821,,,,
-34.634,116.124,Northcliffe,Western Australia,Australia,Shire Of Manjimup
-34.448,116.043,Pemberton,Western Australia,Australia,Shire Of Manjimup
-34.435,119.363,Bremer Bay,Western Australia,Australia,Shire Of Jerramungup
-34.98,117.632,,,,
-33.952,115.197,,,,
-33.686,115.401,,,,
-34.367,117.55,Tenterden,Western Australia,Australia,Shire Of Cranbrook
-34.548,117.931,,,,
-35.018,117.529,,,,
-34.976,116.733,Walpole,Western Australia,Australia,Shire Of Manjimup
-34.144,115.226,,,,
-34.715,118.469,,,,
-34.091,116.663,,,,
-33.949,116.131,Bridgetown,Western Australia,Australia,Shire Of Bridgetown-Greenbushes
-34.152,116.204,,,,
-34.7,117.956,,,,
-34.728,117.922,Narrikup,Western Australia,Australia,Shire Of Plantagenet
-33.711,121.562,,,,
-33.36,116.147,Collie,Western Australia,Australia,Shire Of Collie
-33.446,115.731,,,,
-33.603,121.783,,,,
-34.864,118.112,Manypeaks,Western Australia,Australia,City Of Albany
-34.363,117.084,Cranbrook,Western Australia,Australia,Shire Of Cranbrook
-33.836,115.075,Cowaramup,Western Australia,Australia,Shire Of Augusta Margaret River
-33.134,115.881,Wokalup,Western Australia,Australia,Shire Of Harvey
-33.798,121.15,,,,
-34.951,117.277,,,,
-33.506,115.64,Boyanup,Western Australia,Australia,Shire Of Capel
-34.399,119.378,Bremer Bay,Western Australia,Australia,Shire Of Jerramungup
-33.296,115.779,,,,
-34.51,117.012,Rocky Gully,Western Australia,Australia,Shire Of Plantagenet
-33.596,116.335,,,,
-33.674,116.648,,,,
-33.688,116.215,Wilga,Western Australia,Australia,Shire Of Boyup Brook
-34.251,116.877,,,,
-34.877,117.672,Redmond,Western Australia,Australia,City Of Albany
-33.762,116.521,,,,
-34.226,115.762,,,,
-33.3,115.8,Burekup,Western Australia,Australia,Shire Of Dardanup
-33.704,115.89,Kirup,Western Australia,Australia,Shire Of Donnybrook-Balingup
-33.802,123.033,,,,
-33.696,121.366,,,,
-33.453,116.302,,,,
-33.679,122.331,,,,
-34.941,117.802,Albany,Western Australia,Australia,City Of Albany
-33.647,115.703,Capel,Western Australia,Australia,Shire Of Capel
-34.028,115.104,Witchcliffe,Western Australia,Australia,Shire Of Augusta Margaret River
-34.723,117.349,,,,
-34.596,118.552,,,,
-35.06,117.866,Albany,Western Australia,Australia,Little Grove
-32.57,116.438,,,,
-33.741,115.47,,,,
-33.761,121.216,,,,
-33.793,115.319,,,,
-34.932,117.161,,,,
-33.83,121.892,,,,
-34.16,115.189,,,,
-33.663,121.631,,,,
-33.783,115.345,,,,
-33.881,122.217,,,,
-34.977,116.729,Walpole,Western Australia,Australia,Shire Of Manjimup
-33.882,122.566,Condingup,Western Australia,Australia,Shire Of Esperance
-33.775,121.555,,,,
-33.752,122.913,Condingup,Western Australia,Australia,Shire Of Esperance
-33.882,121.86,,,,
-34.927,117.873,Albany,Western Australia,Australia,City Of Albany
-34.403,118.969,Bremer Bay,Western Australia,Australia,Shire Of Jerramungup
-33.796,115.666,Jarrahwood,Western Australia,Australia,City Of Busselton
-34.442,116.994,Rocky Gully,Western Australia,Australia,Shire Of Cranbrook
-34.772,118.132,Manypeaks,Western Australia,Australia,City Of Albany
-34.538,117.72,Kendenup,Western Australia,Australia,Shire Of Plantagenet
-34.901,118.202,Manypeaks,Western Australia,Australia,City Of Albany
-34.888,118.396,,,,
-33.508,116.739,Darkan,Western Australia,Australia,Shire Of West Arthur
-34.4,118.887,Bremer Bay,Western Australia,Australia,Shire Of Jerramungup
-33.651,122.016,,,,
-33.708,120.865,,,,
-33.916,122.208,,,,
-34.836,116.031,,,,
-34.569,117.622,Mount Barker,Western Australia,Australia,Shire Of Plantagenet
-33.603,115.498,,,,
-32.64,115.946,,,,
-32.923,116.008,,,,
-32.918,115.922,,,,
-33.854,123.007,,,,
-34.888,118.079,,,,
-34.597,116.107,,,,
-34.138,116.233,,,,
-34.213,116.023,,,,
-34.229,115.929,,,,
-33.791,115.319,,,,
-33.445,115.851,,,,
-33.691,115.844,Newlands,Western Australia,Australia,Shire Of Donnybrook-Balingup
-33.32,116.646,Darkan,Western Australia,Australia,Shire Of West Arthur
-33.706,115.788,Kirup,Western Australia,Australia,Shire Of Donnybrook-Balingup
-33.649,121.197,,,,
-33.317,115.989,,,,
-34.249,116.497,,,,
-33.603,116.013,Noggerup,Western Australia,Australia,Shire Of Donnybrook-Balingup
-34.839,116.721,,,,
-34.879,118.047,,,,
-32.624,116.06,,,,
-33.81,122.084,,,,
-35.037,116.925,Peaceful Bay,Western Australia,Australia,Shire Of Denmark
-34.662,117.839,Narrikup,Western Australia,Australia,Shire Of Plantagenet
-33.203,116.276,,,,
-33.931,120.128,Ravensthorpe,Western Australia,Australia,
-34.571,117.011,Rocky Gully,Western Australia,Australia,Shire Of Plantagenet
-33.357,115.645,Bunbury,Western Australia,Australia,Carey Park
-34.777,117.651,Narrikup,Western Australia,Australia,Shire Of Plantagenet
-34.568,116.337,,,,
-33.784,115.408,,,,
-34.868,118.216,Manypeaks,Western Australia,Australia,City Of Albany
-32.645,115.864,,,,
-32.522,115.712,City of Mandurah,Western Australia,Australia,
-33.756,115.21,,,,
-34.421,115.852,,,,
-33.388,115.854,,,,
-34.834,117.792,Narrikup,Western Australia,Australia,Shire Of Plantagenet
-33.641,115.703,,,,
-33.681,115.624,,,,
-33.646,115.955,,,,
-33.478,115.739,Boyanup,Western Australia,Australia,Shire Of Capel
-33.571,115.838,Donnybrook,Western Australia,Australia,Shire Of Donnybrook-Balingup
-33.544,115.551,Capel,Western Australia,Australia,Shire Of Capel
-33.361,116.172,Collie,Western Australia,Australia,Shire Of Collie
-33.765,115.843,,,,
-34.947,116.722,Walpole,Western Australia,Australia,Shire Of Manjimup
-31.168,117.074,Dowerin,Western Australia,Australia,Shire Of Dowerin
-31.367,117.903,Merredin,Western Australia,Australia,
-31.728,118.111,Bruce Rock,Western Australia,Australia,Shire Of Bruce Rock
-30.808,117.86,Bencubbin,Western Australia,Australia,Shire Of Mount Marshall
-31.274,116.509,Northam,Western Australia,Australia,
-30.473,118.382,,,,
-31.528,117.436,,,,
-31.878,118.15,Bruce Rock,Western Australia,Australia,Shire Of Bruce Rock
-31.396,118.481,Burracoppin,Western Australia,Australia,Shire Of Merredin
-30.201,117.939,,,,
-31.5,116.941,,,,
-30.061,117.142,,,,
-30.777,118.199,,,,
-31.374,117.586,,,,
-30.996,117.395,,,,
-31.727,118.293,Bruce Rock,Western Australia,Australia,Shire Of Bruce Rock
-31.79,117.328,Cunderdin,Western Australia,Australia,Shire Of Cunderdin
-31.007,117.204,,,,
-31.609,117.878,Doodlakine,Western Australia,Australia,Shire Of Kellerberrin
-31.619,117.437,,,,
-31.194,117.031,Dowerin,Western Australia,Australia,Shire Of Dowerin
-31.766,116.917,,,,
-31.623,117.543,,,,
-31.01,117.134,,,,
-31.445,117.222,Cunderdin,Western Australia,Australia,Shire Of Cunderdin
-31.723,118.437,,,,
-30.8,117.681,Gabbin,Western Australia,Australia,Shire Of Mount Marshall
-31.299,116.827,Goomalling,Western Australia,Australia,Shire Of Goomalling
-31.989,118.511,,,,
-31.142,116.956,Dowerin,Western Australia,Australia,Shire Of Dowerin
-31.275,116.508,Bolgart,Western Australia,Australia,Shire Of Victoria Plains
-29.586,116.962,,,,
-30.369,117.113,Kalannie,Western Australia,Australia,Shire Of Dalwallinu
-31.618,117.722,Kellerberrin,Western Australia,Australia,Shire Of Kellerberrin
-29.609,117.41,,,,
-31.06,116.732,,,,
-30.825,117.482,Koorda,Western Australia,Australia,Shire Of Koorda
-31.112,117.919,Kununoppin,Western Australia,Australia,Shire Of Trayning
-31.372,118.196,,,,
-30.106,117.36,,,,
-31.632,117.008,Meckering,Western Australia,Australia,Shire Of Cunderdin
-31.476,118.279,Merredin,Western Australia,Australia,Shire Of Merredin
-31.594,118.235,,,,
-30.657,117.262,,,,
-30.915,118.203,Mukinbudin,Western Australia,Australia,Shire Of Mukinbudin
-31.402,117.724,,,,
-31.326,118.246,,,,
-31.651,116.659,Northam,Western Australia,Australia,Shire Of Northam
-31.184,118.101,Nungarin,Western Australia,Australia,Shire Of Nungarin
-31.771,116.865,,,,
-31.54,117.478,Tammin,Western Australia,Australia,Shire Of Tammin
-31.992,118.026,Ardath,Western Australia,Australia,Shire Of Bruce Rock
-31.795,118.395,Narembeen,Western Australia,Australia,Shire Of Narembeen
-31.909,117.099,,,,
-31.643,117.487,Tammin,Western Australia,Australia,Shire Of Tammin
-31.831,117.488,,,,
-31.992,117.932,Shackleton,Western Australia,Australia,Shire Of Bruce Rock
-31.514,118.175,,,,
-31.545,116.459,Toodyay,Western Australia,Australia,Shire Of Toodyay
-31.115,117.794,Trayning,Western Australia,Australia,Shire Of Trayning
-31.312,116.515,Bejoording,Western Australia,Australia,Shire Of Toodyay
-30.487,118.126,,,,
-30.589,118.149,,,,
-30.329,118.087,Beacon,Western Australia,Australia,Shire Of Mount Marshall
-31.814,116.341,Wooroloo,Western Australia,Australia,Shire of Mundaring
-31.181,117.38,Wyalkatchem,Western Australia,Australia,Shire Of Wyalkatchem
-30.29,117.011,Dalwallinu,Western Australia,Australia,Shire Of Dalwallinu
-31.415,117.266,,,,
-31.376,117.585,,,,
-31.336,117.816,,,,
-31.636,116.796,Grass Valley,Western Australia,Australia,Shire Of Northam
-31.532,118.099,Hines Hill,Western Australia,Australia,Shire Of Merredin
-31.75,116.683,,,,
-30.769,117.136,Cadoux,Western Australia,Australia,Shire Of Wongan-Ballidu
-31.091,116.448,Calingiri,Western Australia,Australia,Shire Of Victoria Plains
-30.407,118.28,,,,
-31.453,117.119,,,,
-31.771,117.143,,,,
-30.554,118.283,,,,
-29.239,116.712,,,,
-31.65,117.1,Meckering,Western Australia,Australia,Shire Of Cunderdin
-31.76,116.478,Bakers Hill,Western Australia,Australia,Shire Of Northam
-31.135,116.924,Dowerin,Western Australia,Australia,Shire Of Goomalling
-31.509,117.768,Doodlakine,Western Australia,Australia,Shire Of Kellerberrin
-30.155,117.821,,,,
-31.934,117.835,Shackleton,Western Australia,Australia,Shire Of Bruce Rock
-31.622,117.222,Cunderdin,Western Australia,Australia,Shire Of Cunderdin
-31.574,117.51,,,,
-31.907,117.234,,,,
-31.559,118.582,Merredin,Western Australia,Australia,Shire Of Merredin
-31.485,116.538,,,,
-30.726,118.422,,,,
-31.794,116.628,Spencers Brook,Western Australia,Australia,Shire Of York
-31.55,116.487,,,,
-31.765,116.346,Wundowie,Western Australia,Australia,Shire Of Northam
-31.9,116.765,York,Western Australia,Australia,Daliak
-34.255,118.221,Amelup,Western Australia,Australia,Shire Of Gnowangerup
-32.031,118.095,Ardath,Western Australia,Australia,Shire Of Bruce Rock
-34.081,117.518,Katanning,Western Australia,Australia,
-33.339,117.035,Wagin,Western Australia,Australia,
-34.146,117.396,Cranbrook,Western Australia,Australia,Shire Of Cranbrook
-33.636,117.928,Nyabing,Western Australia,Australia,Shire Of Katanning
-33.164,116.799,Narrogin,Western Australia,Australia,
-32.802,117.502,Wickepin,Western Australia,Australia,Shire Of Wickepin
-32.387,118.262,Kondinin,Western Australia,Australia,Shire Of Kondinin
-32.108,116.925,Beverley,Western Australia,Australia,Shire Of Beverley
-32.401,118.606,Karlgarin,Western Australia,Australia,Shire Of Kondinin
-34.072,118.263,,,,
-33.661,117.054,,,,
-32.373,117.007,Brookton,Western Australia,Australia,Shire Of Brookton
-33.846,117.639,Broomehill Village,Western Australia,Australia,Shire Of Broomehill-Tambellup
-32.376,117.513,,,,
-33.914,117.099,,,,
-33.707,117.241,,,,
-32.482,117.565,,,,
-32.329,117.873,Corrigin,Western Australia,Australia,Shire Of Corrigin
-34.296,117.553,Cranbrook,Western Australia,Australia,Shire Of Cranbrook
-32.818,117.18,Cuballing,Western Australia,Australia,Shire Of Cuballing
-33.859,118.816,,,,
-33.335,116.742,Darkan,Western Australia,Australia,Shire Of West Arthur
-33.396,117.094,,,,
-33.314,117.74,Dumbleyung,Western Australia,Australia,Shire Of Dumbleyung
-33.517,116.803,Bowelling,Western Australia,Australia,Shire Of West Arthur
-33.266,118.486,,,,
-32.48,116.817,,,,
-33.937,118.008,Gnowangerup,Western Australia,Australia,Shire Of Gnowangerup
-32.54,119.112,Hyden,Western Australia,Australia,Shire Of Kondinin
-32.347,116.855,Brookton,Western Australia,Australia,Shire Of Brookton
-32.674,119.414,Hyden,Western Australia,Australia,Shire Of Kulin
-33.571,117.211,,,,
-32.442,118.898,Hyden,Western Australia,Australia,Shire Of Kondinin
-32.379,116.826,,,,
-32.289,119.136,Hyden,Western Australia,Australia,Shire Of Kondinin
-33.83,117.159,Kojonup,Western Australia,Australia,Shire Of Kojonup
-32.495,118.268,Kondinin,Western Australia,Australia,Shire Of Kondinin
-32.672,118.155,Kulin,Western Australia,Australia,Shire Of Kulin
-33.61,117.988,Nyabing,Western Australia,Australia,Shire Of Katanning
-33.651,118.552,Pingrup,Western Australia,Australia,
-33.412,118.511,Pingrup,Western Australia,Australia,Shire Of Lake Grace
-33.198,116.911,Williams,Western Australia,Australia,Shire Of Williams
-33.607,118.429,Pingrup,Western Australia,Australia,
-32.423,118.2,Kondinin,Western Australia,Australia,Shire Of Kondinin
-32.927,119.578,,,,
-33.276,119.775,Lake King,Western Australia,Australia,Shire Of Lake Grace
-32.066,118.396,Narembeen,Western Australia,Australia,Shire Of Narembeen
-32.934,117.18,Narrogin,Western Australia,Australia,Shire Of Narrogin
-33.094,119.024,Newdegate,Western Australia,Australia,Shire Of Lake Grace
-33.542,118.149,Nyabing,Western Australia,Australia,
-32.304,116.636,,,,
-33.964,118.489,Ongerup,Western Australia,Australia,Shire Of Gnowangerup
-32.534,117.083,Pingelly,Western Australia,Australia,Shire Of Pingelly
-33.535,118.509,Pingrup,Western Australia,Australia,
-32.009,117.401,Quairading,Western Australia,Australia,Shire Of Quairading
-33.58,120.046,Ravensthorpe,Western Australia,Australia,Shire Of Ravensthorpe
-32.311,116.768,,,,
-33.785,116.906,Muradup,Western Australia,Australia,Shire Of Kojonup
-32.523,118.305,Kondinin,Western Australia,Australia,Shire Of Kondinin
-33.375,116.905,Darkan,Western Australia,Australia,Shire Of West Arthur
-34.044,117.642,Tambellup,Western Australia,Australia,Shire Of Broomehill-Tambellup
-33.126,118.196,,,,
-33.308,117.34,Wagin,Western Australia,Australia,Shire Of Wagin
-32.782,117.499,Wickepin,Western Australia,Australia,Shire Of Wickepin
-33.027,116.879,Williams,Western Australia,Australia,Shire Of Williams
-33.356,117.916,,,,
-32.833,116.991,,,,
-33.564,117.434,Woodanilling,Western Australia,Australia,Shire Of Woodanilling
-32.593,117.626,Yealering,Western Australia,Australia,Shire Of Wickepin
-32.901,117.399,,,,
-33.189,118.084,Kukerin,Western Australia,Australia,Shire Of Dumbleyung
-32.039,118.902,,,,
-32.444,119.344,Hyden,Western Australia,Australia,Shire Of Kondinin
-33.136,117.881,,,,
-33.096,117.405,,,,
-33.113,118.84,,,,
-33.996,117.916,,,,
-32.66,118.632,,,,
-33.714,118.189,Nyabing,Western Australia,Australia,
-33.497,117.313,,,,
-32.1,118.806,,,,
-33.328,117.563,,,,
-32.334,118.849,Hyden,Western Australia,Australia,Shire Of Kondinin
-33.941,118.92,Jerramungup,Western Australia,Australia,Shire Of Jerramungup
-34.221,117.981,Amelup,Western Australia,Australia,Shire Of Broomehill-Tambellup
-34.2,117.8,,,,
-33.446,117.661,Dumbleyung,Western Australia,Australia,Shire Of Woodanilling
-34.344,118.631,,,,
-34.004,118.054,,,,
-34.402,118.102,,,,
-34.169,118.944,Jerramungup,Western Australia,Australia,Shire Of Jerramungup
-33.211,116.992,Williams,Western Australia,Australia,Shire Of West Arthur
-32.118,116.868,Beverley,Western Australia,Australia,Shire Of Beverley
-34.251,117.912,Cranbrook,Western Australia,Australia,Shire Of Broomehill-Tambellup
-32.634,118.01,,,,
-33.466,118.636,Pingrup,Western Australia,Australia,
-33.011,118.239,,,,
-32.184,117.968,,,,
-33.181,120.088,Ravensthorpe,Western Australia,Australia,Shire Of Ravensthorpe
-33.206,117.699,,,,
-32.234,117.644,,,,
-33.484,117.61,,,,
-32.819,119.294,,,,
-33.932,117.326,,,,
-33.594,120.183,Ravensthorpe,Western Australia,Australia,Shire Of Ravensthorpe
-33.691,119.661,,,,
-33.172,118.248,,,,
-33.904,117.175,Kojonup,Western Australia,Australia,Shire Of Kojonup
-32.735,116.838,,,,
-33.538,119.656,,,,
-32.134,119.026,,,,
-32.812,116.693,Williams,Western Australia,Australia,Shire Of Williams
-32.885,118.635,,,,
-34.308,117.435,Cranbrook,Western Australia,Australia,Shire Of Cranbrook
-32.632,119.096,Hyden,Western Australia,Australia,Shire Of Kulin
-33.399,119.934,Ravensthorpe,Western Australia,Australia,Shire Of Ravensthorpe
-33.433,120.118,Ravensthorpe,Western Australia,Australia,Shire Of Ravensthorpe
-34.221,118.504,,,,
-32.93,119.837,Lake King,Western Australia,Australia,Shire Of Lake Grace
-33.873,118.2,,,,
-32.172,118.614,,,,
-33.888,119.109,Jerramungup,Western Australia,Australia,Shire Of Jerramungup
-32.029,116.874,Beverley,Western Australia,Australia,Shire Of Beverley
-32.676,117.271,Popanyinning,Western Australia,Australia,Shire Of Cuballing
-33.101,118.465,Lake Grace,Western Australia,Australia,Shire Of Lake Grace
-32.588,117.641,,,,
-33.686,117.606,Katanning,Western Australia,Australia,Shire Of Katanning
-32.672,116.671,Wandering,Western Australia,Australia,Shire Of Wandering
-31.68,128.879,,,,
-31.843,127.857,,,,
-32.457,123.865,,,,
-32.246,126.301,Cocklebiddy,Western Australia,Australia,Shire Of Dundas
-31.712,128.887,Old Eucla,Western Australia,Australia,Shire Of Dundas
-31.722,126.589,Cocklebiddy,Western Australia,Australia,Shire Of Dundas
-31.81,125.927,Cocklebiddy,Western Australia,Australia,Shire Of Dundas
-31.042,125.216,Rawlinna,Western Australia,Australia,City Of Kalgoorlie-Boulder
-31.35,125.223,Rawlinna,Western Australia,Australia,City Of Kalgoorlie-Boulder
-31.58,125.202,,,,
-31.918,125.301,,,,
-31.644,124.935,,,,
-31.196,124.848,Rawlinna,Western Australia,Australia,City Of Kalgoorlie-Boulder
-30.743,125.294,Rawlinna,Western Australia,Australia,City Of Kalgoorlie-Boulder
-32.176,125.395,,,,
-31.024,126.584,Rawlinna,Western Australia,Australia,City Of Kalgoorlie-Boulder
-33.299,123.066,,,,
-30.845,128.109,,,,
-32.203,127.53,,,,
-31.06,118.837,Southern Cross,Western Australia,Australia,
-32.215,121.755,Norseman,Western Australia,Australia,
-30.987,119.114,Bullfinch,Western Australia,Australia,Shire Of Yilgarn
-30.75,121.752,Kalgoorlie,Western Australia,Australia,
-30.954,121.166,Coolgardie,Western Australia,Australia,Shire Of Coolgardie
-27.933,120.058,Sandstone,Western Australia,Australia,Shire Of Sandstone
-31.642,118.902,,,,
-29.812,122.355,,,,
-33.037,121.664,Salmon Gums,Western Australia,Australia,Shire Of Esperance
-32.034,122.802,,,,
-30.785,121.453,Boulder,Western Australia,Australia,City Of Kalgoorlie-Boulder
-29.336,121.494,Leonora,Western Australia,Australia,
-33.555,120.7,,,,
-28.631,122.407,Laverton,Western Australia,Australia,
-28.884,121.33,Leonora,Western Australia,Australia,Shire Of Leonora
-29.694,121.03,Menzies,Western Australia,Australia,Shire Of Menzies
-31.416,119.047,Moorine Rock,Western Australia,Australia,Shire Of Yilgarn
-31.594,119.142,,,,
-31.336,118.98,,,,
-30.376,121.063,,,,
-32.987,121.624,Salmon Gums,Western Australia,Australia,Shire Of Esperance
-27.988,119.296,Sandstone,Western Australia,Australia,Shire Of Sandstone
-33.517,121.75,,,,
-32.861,121.708,Salmon Gums,Western Australia,Australia,Shire Of Esperance
-31.038,119.306,,,,
-31.301,118.692,Westonia,Western Australia,Australia,Shire Of Westonia
-27.575,120.532,,,,
-27.284,120.093,Wiluna,Western Australia,Australia,Shire Of Wiluna
-28.561,119.016,Sandstone,Western Australia,Australia,Shire Of Sandstone
-29.247,122.102,Leonora,Western Australia,Australia,Shire Of Leonora
-31.321,118.548,,,,
-33.422,121.989,,,,
-33.684,120.696,,,,
-31.219,121.618,Kambalda West,Western Australia,Australia,Shire Of Coolgardie
-33.362,121.061,,,,
-30.024,119.28,,,,
-31.262,120.022,,,,
-28.678,120.971,Leonora,Western Australia,Australia,Shire Of Leonora
-30.896,124.866,Rawlinna,Western Australia,Australia,City Of Kalgoorlie-Boulder
-33.384,121.449,Grass Patch,Western Australia,Australia,Shire Of Esperance
-31.704,119.238,,,,
-31.009,122.357,,,,
-33.224,121.354,,,,
-30.818,119.52,Koolyanobbing,Western Australia,Australia,Shire Of Yilgarn
-28.497,119.744,Sandstone,Western Australia,Australia,Shire Of Sandstone
-28.351,127.517,,,,
-28.879,121.319,Leonora,Western Australia,Australia,Shire Of Leonora
-30.282,121.761,,,,
-33.06,121.784,Salmon Gums,Western Australia,Australia,Shire Of Esperance
-27.704,121.613,,,,
-28.718,121.151,Leonora,Western Australia,Australia,Shire Of Leonora
-33.458,120.915,,,,
-31.1,118.602,,,,
-33.485,122.587,,,,
-31.758,119.452,,,,
-28.613,122.424,Laverton,Western Australia,Australia,Shire Of Laverton
-33.524,122.947,,,,
-33.336,122.07,,,,
-33.466,122.397,,,,
-33.591,122.452,Condingup,Western Australia,Australia,Shire Of Esperance
-27.839,120.703,Leinster,Western Australia,Australia,Shire Of Leonora
-29.349,120.401,,,,
-31.235,119.356,Southern Cross,Western Australia,Australia,Shire Of Yilgarn
-25.266,122.043,,,,
-26.222,121.556,Wiluna,Western Australia,Australia,Shire Of Wiluna
-26.401,120.954,Wiluna,Western Australia,Australia,Shire Of Wiluna
-20.142,127.987,Balgo,Western Australia,Australia,Shire of Halls Creek
-26.132,126.584,Warburton,Western Australia,Australia,Shire Of Ngaanyatjarraku
-26.591,120.225,Wiluna,Western Australia,Australia,Shire Of Wiluna
-25.796,122.975,,,,
-25.034,128.301,Warakurna,Western Australia,Australia,Shire Of Ngaanyatjarraku
-26.121,121.94,,,,
-26.517,122.808,,,,
-21.712,122.228,,,,
-25.636,121.353,Wiluna,Western Australia,Australia,Shire Of Wiluna
-27.034,122.444,,,,
-25.707,120.348,Wiluna,Western Australia,Australia,Shire Of Wiluna
-26.599,120.342,Wiluna,Western Australia,Australia,Shire Of Wiluna
-27.154,124.575,,,,
-12.555,130.868,Darwin,Northern Territory,Australia,
-12.81,130.458,,,,
-12.424,130.893,Howard Springs,Northern Territory,Australia,
-12.389,131.177,McMinns Lagoon,Northern Territory,Australia,
-12.423,130.884,Darwin,City of Darwin,Australia,Eaton
-12.605,131.299,Middle Point,Litchfield Municipality,Australia,
-12.225,131.092,,,,
-12.471,130.845,,,,
-13.481,131.117,Adelaide River,Northern Territory,Australia,
-14.083,131.81,Pine Creek,Northern Territory,Australia,
-14.144,132.192,Katherine,Northern Territory,Australia,
-12.49,130.988,Palmerston,City of Palmerston,Australia,Gray
-12.65,131.318,,,,
-12.578,131.314,Middle Point,Litchfield Municipality,Australia,
-13.237,131.104,Adelaide River,Coomalie Shire,Australia,
-12.379,130.847,Darwin,City of Darwin,Australia,Nightcliff
-12.443,130.956,Holtze,Litchfield Municipality,Australia,Knuckey Lagoon
-11.402,130.422,Pirlangimpi,,Australia,Tiwi Islands Region
-12.8,131.051,,,,
-12.396,130.878,Darwin,City of Darwin,Australia,Marrara
-12.578,131.254,,,,
-12.456,131.05,,,,
-11.154,132.143,,,,
-12.572,131.101,Humpty Doo,Litchfield Municipality,Australia,
-12.44,130.838,Darwin,City of Darwin,Australia,The Gardens
-12.465,130.85,Darwin,City of Darwin,Australia,Darwin City
-13.379,131.505,,,,
-12.832,130.971,Tumbling Waters,Litchfield Municipality,Australia,
-12.659,132.894,,,,
-13.758,131.574,,,,
-12.727,130.947,Southport,Litchfield Municipality,Australia,
-12.472,130.992,Palmerston,City of Palmerston,Australia,Yarrawonga
-12.7,131.0,,,,
-12.549,131.079,,,,
-12.637,131.076,Noonamah,Litchfield Municipality,Australia,
-13.806,132.197,,,,
-12.576,131.083,Humpty Doo,Litchfield Municipality,Australia,
-12.389,130.925,Darwin,City of Darwin,Australia,Holmes
-12.402,130.896,Darwin,City of Darwin,Australia,Marrara
-12.435,130.749,Wagait Beach,Wagait Shire,Australia,
-13.113,130.494,,,,
-12.378,130.906,Darwin,City of Darwin,Australia,Leanyer
-13.555,132.273,,,,
-12.676,132.48,,,,
-13.167,130.122,Channel Point Community,,Australia,
-12.244,131.878,,,,
-12.904,132.526,,,,
-12.36,130.983,,,,
-12.586,131.761,,,,
-12.712,130.989,,,,
-12.413,130.92,Darwin,City of Darwin,Australia,Berrimah
-12.412,130.967,,,,
-13.054,131.025,Batchelor,Coomalie Shire,Australia,
-11.047,132.979,,,,
-12.716,131.821,,,,
-12.635,130.372,,,,
-13.081,130.693,,,,
-14.099,131.802,,,,
-12.683,132.474,,,,
-12.355,130.886,,,,
-12.372,130.866,Darwin,City of Darwin,Australia,Brinkin
-11.65,133.38,Warruwi,,Australia,West Arnhem Region
-12.093,134.892,Milingimbi,,Australia,East Arnhem Region
-12.057,134.234,Gunbalanya,,Australia,West Arnhem Region
-12.192,136.684,Nhulunbuy,,Australia,East Arnhem Region
-12.256,136.898,Yirrkala,,Australia,East Arnhem Region
-12.274,136.82,,,,
-12.261,136.839,,,,
-12.194,136.764,Nhulunbuy,,Australia,
-12.501,135.8,Gapuwiyak,,Australia,East Arnhem Region
-11.997,135.573,Galiwinku,,Australia,East Arnhem Region
-13.975,136.463,Angurugu,,Australia,Groote Archipelago Region
-13.952,133.964,,,,
-14.139,134.474,,,,
-14.823,133.701,,,,
-16.189,133.329,,,,
-14.923,133.132,Mataranka,,Australia,Roper Gulf Region
-15.575,133.214,,,,
-15.833,133.401,,,,
-15.809,134.148,,,,
-16.264,133.378,,,,
-13.671,134.341,Bulman,,Australia,Roper Gulf Region
-16.455,134.65,,,,
-14.041,134.094,,,,
-15.527,132.653,,,,
-15.918,132.383,,,,
-14.924,133.062,Mataranka,,Australia,Roper Gulf Region
-14.838,132.968,,,,
-15.004,133.077,Mataranka,,Australia,Roper Gulf Region
-14.853,134.036,,,,
-15.271,132.913,,,,
-14.134,133.109,,,,
-14.915,133.127,,,,
-13.827,133.328,,,,
-14.526,132.801,Barunga,,Australia,Roper Gulf Region
-14.257,133.594,,,,
-14.33,133.118,,,,
-16.976,135.813,,,,
-15.743,136.819,,,,
-16.442,136.076,McArthur River Mine,,Australia,Roper Gulf Region
-17.231,137.331,,,,
-17.212,137.946,,,,
-19.138,137.874,,,,
-16.448,135.217,,,,
-15.579,135.427,,,,
-16.076,136.304,Borroloola,,Australia,Roper Gulf Region
-15.629,136.388,,,,
-14.106,133.342,,,,
-15.933,136.478,,,,
-16.257,131.753,,,,
-16.483,130.617,,,,
-17.036,131.294,,,,
-15.208,129.45,,,,
-16.665,131.764,,,,
-15.467,129.768,,,,
-15.684,130.01,Bulla,Victoria Daly Region,Australia,
-16.635,129.328,,,,
-15.737,131.534,,,,
-15.348,130.276,,,,
-16.05,129.265,,,,
-16.458,129.006,Rosewood,Victoria Daly Region,Australia,
-16.403,131.014,,,,
-16.39,131.557,,,,
-18.332,130.636,Lajamanu,Central Desert Region,Australia,
-17.904,130.227,,,,
-17.848,129.636,,,,
-17.387,131.117,,,,
-16.118,130.956,,,,
-15.661,130.481,Timber Creek,Victoria Daly Region,Australia,
-15.97,129.041,,,,
-17.858,130.884,Lajamanu,Victoria Daly Region,Australia,
-17.335,129.289,,,,
-18.39,129.43,,,,
-19.28,129.942,,,,
-16.354,131.515,,,,
-16.982,130.56,,,,
-17.613,130.071,,,,
-16.957,130.568,,,,
-16.852,131.16,,,,
-13.834,131.187,,,,
-14.459,132.257,,,,
-14.444,132.274,Katherine,Town of Katherine,Australia,Katherine North
-14.2,130.9,,,,
-13.328,133.086,,,,
-14.474,132.305,,,,
-13.745,130.494,,,,
-15.287,131.582,,,,
-14.373,132.157,,,,
-14.523,132.383,,,,
-13.824,131.837,Pine Creek,Victoria Daly Region,Australia,
-14.865,131.844,,,,
-14.5,131.347,,,,
-14.011,132.208,,,,
-14.25,129.528,Wadeye,,Australia,West Daly Region
-15.744,131.918,,,,
-14.124,132.638,,,,
-14.32,132.423,,,,
-13.949,131.319,,,,
-13.824,131.832,Pine Creek,Victoria Daly Region,Australia,
-14.254,132.736,,,,
-14.188,132.396,,,,
-14.315,132.425,,,,
-14.306,132.077,,,,
-14.108,132.9,,,,
-20.502,137.774,,,,
-20.03,137.491,Avon Downs,Barkly Region,Australia,
-18.434,133.877,,,,
-18.948,135.193,,,,
-20.052,137.018,,,,
-18.001,134.862,,,,
-18.637,135.945,,,,
-19.058,136.707,,,,
-17.674,134.251,,,,
-18.869,134.499,,,,
-18.806,137.087,,,,
-17.552,133.541,Elliott,Barkly Region,Australia,
-19.642,134.183,Tennant Creek,Barkly Region,Australia,
-19.933,134.355,,,,
-17.784,135.663,,,,
-23.127,133.836,,,,
-22.385,133.052,,,,
-24.269,134.403,Santa Teresa,,Australia,Macdonnell Region
-25.955,133.211,,,,
-25.314,131.757,,,,
-23.284,134.423,,,,
-21.532,133.89,,,,
-22.256,131.802,Yuendumu,Central Desert Region,Australia,
-23.941,132.782,Hermannsburg,,Australia,Macdonnell Region
-22.05,132.495,,,,
-20.5,134.662,,,,
-22.646,133.346,,,,
-20.188,130.016,,,,
-22.895,135.46,,,,
-22.298,130.85,,,,
-22.803,137.296,,,,
-23.876,133.47,Alice Springs,Northern Territory,Australia,
-24.014,135.427,,,,
-21.674,136.665,,,,
-21.75,135.238,,,,
-23.795,133.889,,,,
-23.456,134.685,,,,
-25.411,135.291,,,,
-23.172,132.15,,,,
-22.949,136.144,,,,
-25.843,133.303,Kulgera,,Australia,Macdonnell Region
-22.13,132.081,,,,
-21.043,134.675,Imangara,Barkly Region,Australia,
-23.329,135.44,,,,
-22.723,131.168,,,,
-23.594,134.489,,,,
-24.131,134.374,Santa Teresa,,Australia,Macdonnell Region
-23.84,134.509,,,,
-23.694,134.035,,,,
-22.396,134.234,,,,
-23.723,133.879,Mpwetyerre,Town of Alice Springs,Australia,Mount Johns
-23.541,133.921,,,,
-24.064,132.744,,,,
-25.19,130.974,Yulara,Northern Territory,Australia,
-23.685,132.672,,,,
-25.905,131.671,,,,
-20.548,130.347,Twin Hills Village,Central Desert Region,Australia,
-24.127,133.085,,,,
-22.452,133.638,,,,
-24.291,131.549,,,,
-22.969,134.242,,,,
-20.444,135.263,,,,
-25.36,131.02,,,,
-22.211,134.118,,,,
-23.27,129.38,Kintore,,Australia,Macdonnell Region
-20.182,130.015,,,,
-23.634,132.731,,,,
-21.514,133.993,,,,
-23.523,133.679,,,,
-20.534,129.936,,,,
-23.531,134.374,,,,
-31.156,136.805,Woomera,South Australia,Australia,
-32.4,137.225,Port Augusta,South Australia,Australia,
-29.943,134.151,,,,
-29.004,134.756,Coober Pedy,South Australia,Australia,
-31.261,135.237,Kingoonya,South Australia,Australia,
-31.996,134.883,,,,
-31.74,135.172,,,,
-29.841,134.904,,,,
-30.005,136.044,,,,
-30.181,135.663,,,,
-30.241,133.988,,,,
-32.523,136.493,,,,
-32.157,135.072,,,,
-31.483,137.48,,,,
-31.634,137.622,,,,
-27.139,134.758,,,,
-32.379,135.525,,,,
-32.123,137.15,,,,
-29.811,133.36,,,,
-30.449,137.169,Andamooka,South Australia,Australia,
-32.44,136.067,,,,
-28.242,134.99,,,,
-26.713,135.078,,,,
-31.765,135.649,,,,
-27.315,133.298,Mintabie,South Australia,Australia,
-29.035,134.722,Coober Pedy,South Australia,Australia,
-26.208,133.854,,,,
-30.483,136.877,Olympic Dam,South Australia,Australia,
-26.264,132.177,,,,
-30.705,134.579,,,,
-26.909,134.058,,,,
-28.892,136.169,Coober Pedy,South Australia,Australia,
-31.094,138.679,,,,
-30.066,138.274,,,,
-28.372,139.972,,,,
-27.724,140.763,Innamincka,South Australia,Australia,
-30.99,138.579,,,,
-29.239,137.906,,,,
-30.937,138.892,,,,
-27.555,135.446,Oodnadatta,South Australia,Australia,
-31.128,138.962,,,,
-30.021,138.042,,,,
-30.413,139.42,,,,
-29.018,138.461,Birdsville,South Australia,Australia,Diamantina Shire
-26.07,135.247,,,,
-29.278,138.382,,,,
-27.72,138.255,,,,
-31.088,138.741,,,,
-31.188,138.278,,,,
-30.311,139.336,Arkaroola Village,South Australia,Australia,
-30.872,140.971,,,,
-30.596,138.422,Leigh Creek,South Australia,Australia,
-27.691,140.107,,,,
-31.009,138.229,,,,
-29.127,140.902,,,,
-30.841,138.322,,,,
-28.1,140.196,,,,
-27.535,140.474,Innamincka,South Australia,Australia,
-29.659,138.068,Marree,South Australia,Australia,
-29.956,138.341,,,,
-29.714,137.902,,,,
-29.906,139.734,,,,
-30.288,138.352,Lyndhurst,South Australia,Australia,
-33.912,136.57,Cowell,South Australia,Australia,
-31.831,132.626,,,,
-34.059,135.504,,,,
-33.122,137.227,Whyalla,South Australia,Australia,
-34.1,135.842,Tumby Bay,South Australia,Australia,
-32.127,133.672,Ceduna,South Australia,Australia,
-32.13,133.698,Ceduna,South Australia,Australia,
-33.701,136.494,Cleve,South Australia,Australia,The District Council of Cleve
-34.627,135.699,Port Lincoln,South Australia,Australia,
-34.385,135.47,Coulta,South Australia,Australia,The District Council of Lower Eyre Peninsula
-33.677,136.912,Cowell,South Australia,Australia,The District Council of Franklin Harbour
-34.264,135.727,Cummins,South Australia,Australia,The District Council of Lower Eyre Peninsula
-33.468,136.211,Kimba,South Australia,Australia,
-32.868,137.003,,,,
-31.967,133.766,,,,
-32.732,137.15,Iron Knob,South Australia,Australia,
-32.736,134.971,Minnipa,South Australia,Australia,
-33.186,136.559,,,,
-33.141,136.412,Kimba,South Australia,Australia,The District Council of Kimba
-33.133,135.555,Kyancutta,South Australia,Australia,
-33.953,135.268,,,,
-33.568,135.757,Lock,South Australia,Australia,
-32.072,133.94,,,,
-34.12,136.161,,,,
-32.854,135.154,Minnipa,South Australia,Australia,
-33.031,134.702,Streaky Bay,South Australia,Australia,
-33.484,135.159,,,,
-32.992,135.548,Wudinna,South Australia,Australia,
-33.212,137.362,,,,
-31.778,132.204,Yalata,South Australia,Australia,
-31.932,133.006,Penong,South Australia,Australia,
-33.65,134.888,Elliston,South Australia,Australia,
-34.602,135.873,,,,
-32.375,133.935,Smoky Bay,South Australia,Australia,
-32.796,134.212,Streaky Bay,South Australia,Australia,
-33.043,135.452,Wudinna,South Australia,Australia,
-34.376,136.103,Tumby Bay,South Australia,Australia,The District Council of Tumby Bay
-34.181,136.049,Ungarra,South Australia,Australia,The District Council of Tumby Bay
-33.317,136.252,,,,
-33.242,135.598,,,,
-34.262,136.209,,,,
-32.404,134.532,Wirrulla,South Australia,Australia,
-33.682,136.683,,,,
-32.948,135.275,,,,
-34.141,135.73,Yeelanna,South Australia,Australia,The District Council of Lower Eyre Peninsula
-33.157,135.867,Kyancutta,South Australia,Australia,
-34.349,135.898,Cummins,South Australia,Australia,The District Council of Tumby Bay
-31.449,130.898,Yalata,South Australia,Australia,
-34.591,135.757,,,,
-33.965,136.247,,,,
-30.159,131.579,,,,
-35.336,136.117,,,,
-33.708,136.503,Cleve,South Australia,Australia,The District Council of Cleve
-33.109,137.174,,,,
-32.509,134.214,,,,
-33.054,137.52,,,,
-34.834,135.698,,,,
-34.542,135.7,,,,
-33.17,134.692,,,,
-31.482,131.84,Yalata,South Australia,Australia,
-33.699,135.924,,,,
-33.573,135.602,Lock,South Australia,Australia,
-32.281,134.471,,,,
-33.098,135.353,Wudinna,South Australia,Australia,
-34.136,135.332,,,,
-32.921,136.0,,,,
-33.723,136.151,,,,
-34.039,136.011,,,,
-33.342,136.752,,,,
-31.966,133.332,,,,
-33.612,136.372,,,,
-32.553,136.712,,,,
-34.625,135.472,Coffin Bay,South Australia,Australia,The District Council of Lower Eyre Peninsula
-33.752,135.186,,,,
-32.9,136.186,,,,
-34.375,135.374,Coulta,South Australia,Australia,The District Council of Lower Eyre Peninsula
-34.599,135.878,,,,
-33.027,136.317,,,,
-32.843,135.152,Minnipa,South Australia,Australia,
-33.414,136.599,,,,
-32.509,137.714,,,,
-34.344,136.047,,,,
-33.588,134.886,Elliston,South Australia,Australia,
-34.74,135.845,Port Lincoln,South Australia,Australia,City of Port Lincoln
-33.231,135.41,Wudinna,South Australia,Australia,
-33.819,135.486,,,,
-32.939,135.078,Minnipa,South Australia,Australia,
-33.741,135.08,Elliston,South Australia,Australia,
-32.923,136.478,,,,
-33.052,138.428,Peterborough,South Australia,Australia,
-32.251,137.978,,,,
-32.825,138.691,,,,
-32.881,138.352,Port Pirie,South Australia,Australia,
-32.462,138.2,,,,
-32.424,138.53,Carrieton,South Australia,Australia,
-32.069,138.495,Cradock,South Australia,Australia,
-32.705,138.78,,,,
-32.537,138.563,,,,
-32.804,138.922,,,,
-31.885,138.435,Hawker,South Australia,Australia,
-31.878,138.837,,,,
-32.829,138.191,Melrose,South Australia,Australia,The District Council of Mount Remarkable
-32.765,138.506,,,,
-32.468,138.016,Quorn,South Australia,Australia,
-32.878,139.058,,,,
-32.734,138.614,Orroroo,South Australia,Australia,
-32.974,138.838,Peterborough,South Australia,Australia,
-33.022,138.0,Port Germein,South Australia,Australia,The District Council of Mount Remarkable
-32.354,138.037,Quorn,South Australia,Australia,
-32.845,138.212,Melrose,South Australia,Australia,The District Council of Mount Remarkable
-32.95,138.517,Tarcowie,South Australia,Australia,Northern Areas Council
-31.775,138.653,Hawker,South Australia,Australia,
-32.692,138.325,,,,
-32.652,138.1,Wilmington,South Australia,Australia,The District Council of Mount Remarkable
-31.988,138.342,Hawker,South Australia,Australia,
-33.034,138.269,Wirrabara,South Australia,Australia,The District Council of Mount Remarkable
-33.086,138.221,Wirrabara,South Australia,Australia,The District Council of Mount Remarkable
-32.552,138.869,,,,
-32.054,138.643,Cradock,South Australia,Australia,
-33.029,138.749,,,,
-31.529,138.609,,,,
-32.517,137.842,Stirling North,South Australia,Australia,
-32.255,138.638,Cradock,South Australia,Australia,
-32.668,138.158,Wilmington,South Australia,Australia,The District Council of Mount Remarkable
-32.627,139.192,,,,
-31.367,138.718,,,,
-32.496,138.373,,,,
-32.124,138.467,Cradock,South Australia,Australia,
-31.476,139.113,,,,
-33.023,138.07,Port Germein,South Australia,Australia,The District Council of Mount Remarkable
-31.448,138.453,,,,
-32.429,138.892,,,,
-33.019,138.615,,,,
-32.772,138.3,Booleroo Centre,South Australia,Australia,The District Council of Mount Remarkable
-32.907,138.559,Tarcowie,South Australia,Australia,
-32.956,138.944,,,,
-32.05,140.162,,,,
-31.97,140.544,,,,
-32.076,140.997,Broken Hill,New South Wales,Australia,
-31.652,139.549,,,,
-31.478,139.386,,,,
-32.065,139.382,,,,
-32.957,139.972,Yunta,South Australia,Australia,
-32.429,139.989,,,,
-32.447,140.923,Cockburn,South Australia,Australia,
-32.642,139.65,,,,
-32.727,139.4,,,,
-33.246,140.034,,,,
-32.473,139.71,,,,
-33.501,139.515,,,,
-33.762,140.125,,,,
-33.312,140.186,,,,
-33.187,139.621,,,,
-32.493,140.23,,,,
-31.638,140.513,,,,
-32.062,139.887,,,,
-32.17,140.796,,,,
-31.748,140.343,,,,
-32.299,140.415,,,,
-31.662,140.629,,,,
-32.522,139.555,,,,
-32.571,139.564,Yunta,South Australia,Australia,
-34.026,138.685,Clare,South Australia,Australia,
-34.142,138.422,Balaklava,South Australia,Australia,Wakefield Regional Council
-33.845,138.49,Blyth,South Australia,Australia,Wakefield Regional Council
-33.564,138.76,Booborowie,South Australia,Australia,The Regional Council of Goyder
-33.695,138.406,Brinkworth,South Australia,Australia,Wakefield Regional Council
-33.466,138.541,Spalding,South Australia,Australia,Northern Areas Council
-33.746,138.563,,,,
-33.868,138.01,Wallaroo,South Australia,Australia,
-33.185,138.497,Caltowie,South Australia,Australia,Northern Areas Council
-33.704,138.293,Brinkworth,South Australia,Australia,Wakefield Regional Council
-33.353,138.206,Crystal Brook,South Australia,Australia,Port Pirie Regional Council
-33.832,138.792,Farrell Flat,South Australia,Australia,The Regional Council of Goyder
-33.359,138.393,Georgetown,South Australia,Australia,Northern Areas Council
-33.27,138.357,Gladstone,South Australia,Australia,Northern Areas Council
-33.467,138.442,Gulnare,South Australia,Australia,Northern Areas Council
-33.411,138.894,Hallett,South Australia,Australia,The Regional Council of Goyder
-33.46,138.748,,,,
-33.835,138.653,,,,
-33.204,138.606,Jamestown,South Australia,Australia,Northern Areas Council
-33.587,138.334,Koolunga,South Australia,Australia,Port Pirie Regional Council
-33.185,138.3,Laura,South Australia,Australia,Northern Areas Council
-33.914,138.72,Mintaro,South Australia,Australia,Clare and Gilbert Valleys Council
-33.559,138.903,Mount Bryan,South Australia,Australia,The Regional Council of Goyder
-33.595,138.083,,,,
-33.603,137.935,Port Broughton,South Australia,Australia,Barunga West Council
-34.185,138.148,Port Wakefield,South Australia,Australia,Wakefield Regional Council
-33.541,138.224,Redhill,South Australia,Australia,Port Pirie Regional Council
-33.5,138.609,Spalding,South Australia,Australia,Northern Areas Council
-33.961,138.645,Watervale,South Australia,Australia,Clare and Gilbert Valleys Council
-33.23,138.884,,,,
-33.571,138.45,Yacka,South Australia,Australia,Northern Areas Council
-33.687,138.638,,,,
-33.202,138.602,Jamestown,South Australia,Australia,Northern Areas Council
-33.304,138.755,Jamestown,South Australia,Australia,Northern Areas Council
-34.156,138.183,Port Wakefield,South Australia,Australia,Wakefield Regional Council
-33.412,138.818,Hallett,South Australia,Australia,The Regional Council of Goyder
-33.326,138.317,Georgetown,South Australia,Australia,Northern Areas Council
-33.911,138.563,Kybunga,South Australia,Australia,Clare and Gilbert Valleys Council
-33.746,138.606,,,,
-33.931,138.814,Mintaro,South Australia,Australia,Clare and Gilbert Valleys Council
-33.678,138.937,Burra,South Australia,Australia,The Regional Council of Goyder
-33.338,138.925,,,,
-33.654,138.826,Burra,South Australia,Australia,The Regional Council of Goyder
-33.702,138.103,,,,
-33.35,138.102,,,,
-33.994,138.454,Kybunga,South Australia,Australia,Wakefield Regional Council
-33.953,138.39,,,,
-33.458,137.984,,,,
-33.788,137.707,,,,
-33.692,138.133,,,,
-33.255,138.787,,,,
-33.96,138.933,,,,
-33.939,138.717,Mintaro,South Australia,Australia,Clare and Gilbert Valleys Council
-33.883,138.639,Sevenhill,South Australia,Australia,Clare and Gilbert Valleys Council
-34.1,138.631,,,,
-33.823,138.593,Clare,South Australia,Australia,Clare and Gilbert Valleys Council
-33.768,138.218,Snowtown,South Australia,Australia,Wakefield Regional Council
-33.842,138.605,Clare,South Australia,Australia,Clare and Gilbert Valleys Council
-34.423,137.918,Ardrossan,South Australia,Australia,
-34.915,137.062,Corny Point,South Australia,Australia,
-34.698,137.712,Curramulka,South Australia,Australia,
-34.374,137.673,Maitland,South Australia,Australia,
-34.771,137.595,Minlaton,South Australia,Australia,
-34.332,137.59,Maitland,South Australia,Australia,
-34.067,137.592,Moonta,South Australia,Australia,Copper Coast Council
-34.04,137.9,Paskeville,South Australia,Australia,Copper Coast Council
-34.495,137.484,Port Victoria,South Australia,Australia,
-34.778,137.858,Port Vincent,South Australia,Australia,
-34.297,138.001,Price,South Australia,Australia,
-34.52,137.773,,,,
-34.912,137.798,Stansbury,South Australia,Australia,
-34.991,137.4,Warooka,South Australia,Australia,
-33.932,137.628,Wallaroo,South Australia,Australia,Copper Coast Council
-34.278,137.861,Arthurton,South Australia,Australia,
-34.145,138.015,Clinton,South Australia,Australia,
-35.02,137.606,Yorketown,South Australia,Australia,
-34.748,137.528,Minlaton,South Australia,Australia,
-34.472,137.885,Ardrossan,South Australia,Australia,
-34.748,137.631,Minlaton,South Australia,Australia,
-34.369,137.797,Maitland,South Australia,Australia,
-34.298,137.713,Maitland,South Australia,Australia,
-34.239,137.988,Clinton,South Australia,Australia,
-35.112,137.74,Sultana Point,South Australia,Australia,
-35.28,136.939,,,,
-33.97,137.663,Kadina,South Australia,Australia,Copper Coast Council
-34.696,137.574,Minlaton,South Australia,Australia,
-34.555,137.858,Pine Point,South Australia,Australia,
-34.649,137.727,Curramulka,South Australia,Australia,
-34.402,137.718,Maitland,South Australia,Australia,
-35.773,137.779,American River,South Australia,Australia,
-35.843,138.133,Victor Harbor,South Australia,Australia,
-35.924,137.304,Vivonne Bay,South Australia,Australia,
-35.657,137.636,Kingscote,South Australia,Australia,
-35.718,137.939,Penneshaw,South Australia,Australia,
-35.599,137.439,,,,
-35.726,137.259,,,,
-35.951,136.739,,,,
-35.89,136.861,,,,
-35.904,137.454,,,,
-35.755,136.596,,,,
-35.75,137.722,,,,
-35.734,137.121,,,,
-35.81,137.792,,,,
-35.79,137.262,Parndana,South Australia,Australia,
-35.961,137.091,Vivonne Bay,South Australia,Australia,
-35.711,137.523,,,,
-35.598,137.287,,,,
-35.022,138.531,Adelaide,South Australia,Australia,
-34.946,138.652,Gawler,South Australia,Australia,
-34.438,138.511,Mallala,South Australia,Australia,Adelaide Plains Council
-34.917,138.596,Adelaide,South Australia,Australia,North Adelaide
-34.271,138.547,Nuriootpa,South Australia,Australia,
-34.798,138.628,Adelaide,South Australia,Australia,Parafield
-34.532,138.749,Roseworthy,South Australia,Australia,Light Regional Council
-34.767,138.643,Adelaide,South Australia,Australia,City of Salisbury
-34.898,138.509,Adelaide,South Australia,Australia,Seaton
-34.832,138.612,Adelaide,South Australia,Australia,Pooraka
-34.595,138.516,Two Wells,South Australia,Australia,Adelaide Plains Council
-34.97,138.633,Adelaide,South Australia,Australia,Urrbrae
-34.627,138.468,,,,
-34.952,138.52,Adelaide,South Australia,Australia,Adelaide Airport
-34.186,138.63,,,,
-34.939,138.661,Adelaide,South Australia,Australia,Burnside
-34.761,138.631,Adelaide,South Australia,Australia,Paralowie
-34.955,138.536,Adelaide,South Australia,Australia,Adelaide Airport
-34.432,138.259,Parham,South Australia,Australia,Adelaide Plains Council
-34.592,138.739,Adelaide,South Australia,Australia,Willaston
-34.772,138.577,Adelaide,South Australia,Australia,Bolivar
-34.711,138.622,Adelaide,South Australia,Australia,Edinburgh
-34.922,138.68,Adelaide,South Australia,Australia,Rosslyn Park
-34.537,138.605,,,,
-34.921,138.622,Adelaide,South Australia,Australia,Kent Town
-34.973,138.579,Adelaide,South Australia,Australia,Clarence Gardens
-34.358,138.684,Hamley Bridge,South Australia,Australia,Wakefield Regional Council
-34.856,138.684,Adelaide,South Australia,Australia,Hope Valley
-34.974,138.542,Adelaide,South Australia,Australia,Plympton Park
-34.892,138.642,Adelaide,South Australia,Australia,Felixstow
-34.981,138.621,Adelaide,South Australia,Australia,Mitcham
-34.601,138.736,Adelaide,South Australia,Australia,Gawler West
-35.05,138.726,Strathalbyn,South Australia,Australia,
-34.954,138.659,Adelaide,South Australia,Australia,Beaumont
-34.947,138.583,Adelaide,South Australia,Australia,Keswick
-35.0,138.517,Adelaide,South Australia,Australia,Somerton Park
-34.511,138.676,Wasleys,South Australia,Australia,Light Regional Council
-34.202,138.597,,,,
-34.461,138.558,Redbanks,South Australia,Australia,Adelaide Plains Council
-35.536,138.901,,,,
-34.869,138.636,Adelaide,South Australia,Australia,Greenacres
-34.852,138.586,Adelaide,South Australia,Australia,Kilburn
-34.374,138.657,Hamley Bridge,South Australia,Australia,Wakefield Regional Council
-34.868,138.57,Adelaide,South Australia,Australia,Regency Park
-34.832,138.556,Adelaide,South Australia,Australia,Dry Creek
-34.503,139.045,Angaston,South Australia,Australia,The Barossa Council
-34.458,138.928,Greenock,South Australia,Australia,Light Regional Council
-34.17,138.81,Riverton,South Australia,Australia,Clare and Gilbert Valleys Council
-34.341,138.916,Kapunda,South Australia,Australia,Light Regional Council
-34.593,138.868,Lyndoch,South Australia,Australia,The Barossa Council
-34.005,138.814,Manoora,South Australia,Australia,Clare and Gilbert Valleys Council
-34.144,138.877,Marrabel,South Australia,Australia,Clare and Gilbert Valleys Council
-34.158,138.748,Riverton,South Australia,Australia,Clare and Gilbert Valleys Council
-34.517,138.96,Tanunda,South Australia,Australia,The Barossa Council
-34.278,138.772,Tarlee,South Australia,Australia,Clare and Gilbert Valleys Council
-34.16,138.943,Marrabel,South Australia,Australia,Clare and Gilbert Valleys Council
-34.455,138.81,Freeling,South Australia,Australia,Light Regional Council
-34.552,138.834,,,,
-34.464,139.039,,,,
-34.51,138.835,,,,
-34.094,138.795,Saddleworth,South Australia,Australia,Clare and Gilbert Valleys Council
-34.312,139.008,,,,
-34.207,138.789,Riverton,South Australia,Australia,Clare and Gilbert Valleys Council
-34.471,138.999,Nuriootpa,South Australia,Australia,The Barossa Council
-34.33,139.092,,,,
-34.232,138.695,,,,
-34.456,138.922,Greenock,South Australia,Australia,Light Regional Council
-34.314,138.729,Stockport,South Australia,Australia,Clare and Gilbert Valleys Council
-34.453,139.064,Penrice,South Australia,Australia,The Barossa Council
-34.476,139.006,Nuriootpa,South Australia,Australia,The Barossa Council
-34.252,139.018,,,,
-35.008,138.65,Adelaide,South Australia,Australia,Belair
-34.815,138.947,Birdwood,South Australia,Australia,Adelaide Hills Council
-35.01,138.76,,,,
-35.061,138.658,Adelaide,South Australia,Australia,
-35.109,138.626,Adelaide,South Australia,Australia,
-35.096,138.789,Echunga,South Australia,Australia,
-35.374,138.806,,,,
-35.499,138.764,Goolwa,South Australia,Australia,
-34.824,138.886,Gumeracha,South Australia,Australia,Adelaide Hills Council
-35.03,138.815,Hahndorf,South Australia,Australia,
-35.061,138.565,Adelaide,South Australia,Australia,Happy Valley
-34.93,139.014,Murray Bridge,South Australia,Australia,
-35.494,138.458,Inman Valley,South Australia,Australia,
-35.074,139.004,Kanmantoo,South Australia,Australia,
-34.557,139.134,Keyneton,South Australia,Australia,
-34.904,138.874,Lobethal,South Australia,Australia,Adelaide Hills Council
-35.048,138.735,Bradbury,South Australia,Australia,Mylor
-35.189,138.826,Macclesfield,South Australia,Australia,
-35.178,138.763,Meadows,South Australia,Australia,
-34.833,138.822,,,,
-35.135,138.527,Adelaide,South Australia,Australia,Morphett Vale
-35.064,138.851,Mount Barker,South Australia,Australia,
-35.121,138.677,Adelaide,South Australia,Australia,
-35.35,138.622,Mount Compass,South Australia,Australia,
-34.774,139.05,Mount Pleasant,South Australia,Australia,The Barossa Council
-35.39,138.465,Myponga,South Australia,Australia,
-35.037,138.913,Nairne,South Australia,Australia,
-35.452,138.323,Normanville,South Australia,Australia,
-35.53,138.69,,,,
-35.541,138.503,,,,
-35.536,138.234,Second Valley,South Australia,Australia,
-35.256,138.89,Strathalbyn,South Australia,Australia,
-34.831,138.705,Adelaide,South Australia,Australia,St Agnes
-34.956,138.744,Uraidla,South Australia,Australia,Adelaide Hills Council
-34.672,138.888,Williamstown,South Australia,Australia,The Barossa Council
-35.27,138.559,Adelaide,South Australia,Australia,
-35.458,138.35,Yankalilla,South Australia,Australia,
-34.66,138.926,Williamstown,South Australia,Australia,The Barossa Council
-34.74,138.872,Kersbrook,South Australia,Australia,Adelaide Hills Council
-35.556,138.341,Second Valley,South Australia,Australia,
-35.401,138.426,Myponga,South Australia,Australia,
-34.827,139.009,Birdwood,South Australia,Australia,Adelaide Hills Council
-35.025,138.858,Balhannah,South Australia,Australia,Littlehampton
-34.984,138.718,,,,
-35.218,138.734,Prospect Hill,South Australia,Australia,
-34.948,138.807,Lenswood,South Australia,Australia,Adelaide Hills Council
-34.942,138.727,Ashton,South Australia,Australia,Adelaide Hills Council
-35.554,138.6,Victor Harbor,South Australia,Australia,
-34.807,138.755,Adelaide,South Australia,Australia,Golden Grove
-34.971,138.704,,,,
-34.939,139.07,,,,
-35.022,138.734,,,,
-34.68,138.856,Williamstown,South Australia,Australia,The Barossa Council
-35.18,139.024,,,,
-35.412,138.575,,,,
-35.443,138.544,Inman Valley,South Australia,Australia,
-35.529,138.807,,,,
-34.952,138.875,Woodside,South Australia,Australia,Adelaide Hills Council
-35.438,138.64,,,,
-35.022,138.61,Adelaide,South Australia,Australia,Blackwood
-34.978,138.709,,,,
-35.027,138.713,Heathfield,South Australia,Australia,Heathfield
-35.003,138.664,Adelaide,South Australia,Australia,Belair
-34.763,138.776,Adelaide,South Australia,Australia,City of Playford
-34.95,138.687,,,,
-34.912,138.873,Lobethal,South Australia,Australia,Adelaide Hills Council
-34.894,138.81,Montacute,South Australia,Australia,Adelaide Hills Council
-35.007,138.803,Verdun,South Australia,Australia,Adelaide Hills Council
-34.934,138.747,Ashton,South Australia,Australia,Adelaide Hills Council
-35.318,138.464,Adelaide,South Australia,Australia,Sellicks Beach
-34.991,138.694,,,,
-34.975,138.672,Adelaide,South Australia,Australia,City of Mitcham
-35.57,138.286,Second Valley,South Australia,Australia,
-35.228,138.537,Adelaide,South Australia,Australia,
-34.786,138.865,Kersbrook,South Australia,Australia,Adelaide Hills Council
-34.725,138.927,,,,
-34.848,138.875,Gumeracha,South Australia,Australia,Adelaide Hills Council
-34.76,138.934,Forreston,South Australia,Australia,Adelaide Hills Council
-34.774,139.006,Mount Pleasant,South Australia,Australia,The Barossa Council
-34.871,138.906,Lobethal,South Australia,Australia,Adelaide Hills Council
-35.159,138.506,Adelaide,South Australia,Australia,Noarlunga Downs
-35.171,138.678,Adelaide,South Australia,Australia,
-35.609,138.561,,,,
-35.001,138.62,Adelaide,South Australia,Australia,Belair
-34.985,138.74,,,,
-34.886,138.756,Montacute,South Australia,Australia,Adelaide Hills Council
-35.519,138.818,,,,
-34.876,138.71,Adelaide,South Australia,Australia,Athelstone
-35.316,138.622,,,,
-34.979,138.708,,,,
-34.637,139.024,,,,
-34.97,138.741,Uraidla,South Australia,Australia,Piccadilly
-35.208,138.65,Adelaide,South Australia,Australia,
-34.916,138.899,Charleston,South Australia,Australia,Adelaide Hills Council
-35.13,138.682,Adelaide,South Australia,Australia,
-35.063,138.764,,,,
-34.754,138.719,Adelaide,South Australia,Australia,City of Playford
-35.03,138.588,Adelaide,South Australia,Australia,Bellevue Heights
-34.259,140.471,Berri,South Australia,Australia,
-34.166,140.754,Renmark,South Australia,Australia,
-34.223,140.342,Kingston on Murray,South Australia,Australia,
-34.258,140.648,Lyrup,South Australia,Australia,
-34.292,140.363,Moorook South,South Australia,Australia,
-34.148,140.326,,,,
-34.444,140.496,Moorook South,South Australia,Australia,
-34.439,140.598,Loxton,South Australia,Australia,
-34.272,140.596,Berri,South Australia,Australia,
-34.216,140.186,,,,
-34.17,139.817,,,,
-34.19,140.004,Waikerie,South Australia,Australia,
-34.198,140.677,,,,
-34.095,139.154,Eudunda,South Australia,Australia,The Regional Council of Goyder
-34.692,139.44,Black Hill,South Australia,Australia,
-34.123,139.351,,,,
-35.186,139.129,Langhorne Creek,South Australia,Australia,
-35.125,139.043,Callington,South Australia,Australia,
-34.352,139.129,,,,
-35.112,139.517,Wynarka,South Australia,Australia,
-34.175,139.085,Eudunda,South Australia,Australia,The Regional Council of Goyder
-34.653,139.365,Cambrai,South Australia,Australia,
-35.296,139.033,Langhorne Creek,South Australia,Australia,
-34.914,139.301,Mannum,South Australia,Australia,
-35.69,139.338,Meningie,South Australia,Australia,
-35.407,138.97,Milang,South Australia,Australia,
-35.123,139.259,Murray Bridge,South Australia,Australia,
-35.292,139.207,Murray Bridge,South Australia,Australia,
-34.853,139.161,Palmer,South Australia,Australia,
-34.075,139.051,Point Pass,South Australia,Australia,The Regional Council of Goyder
-33.989,139.08,Robertstown,South Australia,Australia,The Regional Council of Goyder
-34.458,139.36,,,,
-34.572,139.296,Sedan,South Australia,Australia,
-34.969,139.187,,,,
-34.156,139.225,,,,
-34.568,139.597,Swan Reach,South Australia,Australia,
-35.255,139.454,Tailem Bend,South Australia,Australia,
-35.619,139.438,,,,
-35.595,139.13,Narrung,South Australia,Australia,
-34.676,139.651,Nildottie,South Australia,Australia,
-35.494,138.993,Clayton Bay,South Australia,Australia,
-35.109,139.081,Callington,South Australia,Australia,
-35.198,139.587,Tailem Bend,South Australia,Australia,
-34.257,139.092,,,,
-34.352,139.615,Blanchetown,South Australia,Australia,
-34.7,139.595,Nildottie,South Australia,Australia,
-35.283,139.203,,,,
-34.408,139.127,Truro,South Australia,Australia,
-34.544,139.193,Keyneton,South Australia,Australia,
-35.348,138.977,Milang,South Australia,Australia,
-35.734,139.268,Meningie,South Australia,Australia,
-34.065,139.66,Morgan,South Australia,Australia,
-34.879,138.974,Mount Torrens,South Australia,Australia,Adelaide Hills Council
-35.284,138.893,Strathalbyn,South Australia,Australia,
-34.504,139.471,Sedan,South Australia,Australia,
-35.102,139.143,,,,
-34.947,138.926,Woodside,South Australia,Australia,Adelaide Hills Council
-35.065,139.227,,,,
-34.508,139.531,Blanchetown,South Australia,Australia,
-34.131,139.423,,,,
-34.731,140.504,,,,
-34.828,139.667,,,,
-34.696,139.96,,,,
-35.09,139.897,Karoonda,South Australia,Australia,
-34.813,140.218,Karoonda,South Australia,Australia,
-35.298,140.667,Parilla,South Australia,Australia,
-34.717,140.735,Paruna,South Australia,Australia,
-35.268,140.908,Pinnaroo,South Australia,Australia,
-34.788,140.5,,,,
-34.973,139.807,,,,
-35.152,140.288,Lameroo,South Australia,Australia,
-35.039,139.984,Karoonda,South Australia,Australia,
-35.244,139.826,,,,
-34.46,139.892,,,,
-35.066,140.856,Karte,South Australia,Australia,
-34.728,140.857,Meribah,South Australia,Australia,
-34.634,140.243,,,,
-34.588,140.079,,,,
-35.207,140.36,Lameroo,South Australia,Australia,
-35.379,139.562,Cooke Plains,South Australia,Australia,
-35.47,139.697,,,,
-35.698,139.863,Coonalpyn,South Australia,Australia,
-35.38,140.159,,,,
-36.098,140.356,Bordertown,South Australia,Australia,
-35.38,140.252,,,,
-35.363,139.95,,,,
-35.881,140.059,Tintinara,South Australia,Australia,
-36.182,140.572,,,,
-36.365,140.91,Wolseley,South Australia,Australia,
-35.86,139.56,,,,
-36.188,140.8,,,,
-35.396,140.599,Lameroo,South Australia,Australia,
-35.99,139.968,Tintinara,South Australia,Australia,
-35.697,139.494,Meningie,South Australia,Australia,
-36.106,140.327,Keith,South Australia,Australia,
-35.47,139.946,,,,
-36.31,140.74,Bordertown,South Australia,Australia,
-36.399,140.842,Wolseley,South Australia,Australia,
-35.378,140.538,Lameroo,South Australia,Australia,
-37.486,140.012,Beachport,South Australia,Australia,Wattle Range Council
-36.712,140.955,Naracoorte,South Australia,Australia,
-37.566,140.696,Mount Gambier,South Australia,Australia,
-36.71,140.162,Kingston South East,South Australia,Australia,
-36.831,139.853,Kingston SE,South Australia,Australia,
-37.605,140.579,Penola,South Australia,Australia,
-36.973,140.366,Lucindale,South Australia,Australia,
-36.501,140.384,,,,
-37.587,140.343,Millicent,South Australia,Australia,Wattle Range Council
-37.833,140.783,Mount Gambier,South Australia,Australia,City of Mount Gambier
-37.747,140.774,,,,
-37.38,140.838,Penola,South Australia,Australia,Wattle Range Council
-37.163,139.756,Robe,South Australia,Australia,
-37.015,139.961,,,,
-36.582,140.729,Bordertown,South Australia,Australia,
-36.606,140.712,Bordertown,South Australia,Australia,
-36.923,140.581,,,,
-36.279,139.843,,,,
-37.959,140.77,,,,
-36.807,140.387,Lucindale,South Australia,Australia,
-37.143,140.95,,,,
-36.942,140.236,,,,
-36.233,139.849,,,,
-37.846,140.769,Mount Gambier,South Australia,Australia,City of Mount Gambier
-37.38,140.329,,,,
-36.401,140.27,,,,
-37.291,140.825,Coonawarra,South Australia,Australia,Wattle Range Council
-36.966,139.716,,,,
-37.542,140.814,Nangwarry,South Australia,Australia,Wattle Range Council
-36.981,140.727,Naracoorte,South Australia,Australia,
-36.654,140.521,,,,
-37.4,140.335,,,,
-37.822,140.759,Mount Gambier,South Australia,Australia,City of Mount Gambier
-37.134,140.727,,,,
-36.846,140.559,,,,
-37.178,139.805,Robe,South Australia,Australia,
-37.104,140.096,,,,
-36.437,140.336,,,,
-37.382,139.945,Beachport,South Australia,Australia,Wattle Range Council
-36.775,140.022,Kingston SE,South Australia,Australia,
-37.927,140.426,,,,
-37.285,140.693,,,,
-13.354,141.721,Aurukun,Queensland,Australia,Aurukun Shire
-13.945,143.201,Coen,Queensland,Australia,Cook Shire
-13.764,143.118,,,,
-12.454,142.639,,,,
-16.423,143.146,,,,
-12.627,141.884,Weipa,Queensland,Australia,
-13.066,142.451,,,,
-12.678,141.921,,,,
-11.751,142.582,,,,
-10.051,143.069,Poruma,Queensland,Australia,Torres Strait Island Regional
-10.584,142.29,,,,
-14.518,142.039,,,,
-13.438,142.942,,,,
-13.132,142.787,,,,
-14.941,142.343,,,,
-12.093,142.559,,,,
-13.761,143.118,,,,
-12.617,142.087,,,,
-15.558,144.445,Laura,Queensland,Australia,Cook Shire
-16.001,144.076,,,,
-12.785,143.305,Lockhart River,Queensland,Australia,Lockhart River Aboriginal Shire
-17.047,144.349,,,,
-16.222,144.708,,,,
-14.489,143.678,,,,
-16.662,143.997,,,,
-16.542,143.669,,,,
-15.687,143.563,,,,
-14.712,143.73,,,,
-18.295,139.283,,,,
-18.545,139.871,,,,
-17.742,139.548,Burketown,Queensland,Australia,
-20.709,140.519,Cloncurry,Queensland,Australia,
-20.167,141.851,,,,
-18.204,142.245,Croydon,Queensland,Australia,Croydon Shire
-18.714,140.547,,,,
-16.041,142.379,,,,
-20.653,141.549,Julia Creek,Queensland,Australia,McKinlay Shire
-18.852,142.574,,,,
-20.092,140.368,,,,
-19.36,140.041,,,,
-20.425,141.405,,,,
-18.581,138.581,,,,
-19.007,139.896,,,,
-21.272,141.289,McKinlay,Queensland,Australia,McKinlay Shire
-19.858,141.557,,,,
-17.33,141.88,,,,
-15.482,141.748,Kowanyama,Queensland,Australia,Kowanyama Aboriginal Shire
-19.624,138.639,,,,
-20.016,141.905,,,,
-20.667,141.721,Julia Creek,Queensland,Australia,McKinlay Shire
-18.951,138.053,,,,
-17.687,141.073,Karumba,Queensland,Australia,
-18.788,139.712,,,,
-19.028,138.741,,,,
-17.338,138.251,,,,
-20.475,140.583,Cloncurry,Queensland,Australia,Cloncurry Shire
-17.748,139.536,Burketown,Queensland,Australia,Burke Shire
-20.251,140.655,Cloncurry,Queensland,Australia,Cloncurry Shire
-18.503,139.29,,,,
-17.957,139.755,Burketown,Queensland,Australia,Burke Shire
-19.839,140.934,,,,
-18.642,139.252,Gregory,Queensland,Australia,Burke Shire
-16.993,141.316,,,,
-20.144,139.414,,,,
-20.596,139.694,Mount Isa,Queensland,Australia,
-20.736,139.482,Mount Isa,Queensland,Australia,Mount Isa City
-20.678,139.488,Mount Isa,Queensland,Australia,Kalkadoon
-21.215,140.233,,,,
-20.954,139.586,,,,
-20.02,139.843,,,,
-20.656,142.101,Julia Creek,Queensland,Australia,McKinlay Shire
-21.366,140.499,,,,
-19.666,141.396,,,,
-17.114,139.598,,,,
-20.666,140.505,Cloncurry,Queensland,Australia,Cloncurry Shire
-18.243,140.528,,,,
-20.842,141.429,Julia Creek,Queensland,Australia,McKinlay Shire
-18.704,138.484,,,,
-18.431,141.269,,,,
-18.1,138.3,,,,
-18.098,138.303,,,,
-18.97,138.803,,,,
-18.757,138.706,,,,
-17.833,139.283,,,,
-19.906,139.107,,,,
-17.604,143.181,,,,
-18.719,144.318,Einasleigh,Queensland,Australia,Etheridge Shire
-19.265,143.674,,,,
-20.739,144.485,Hughenden,Queensland,Australia,
-20.819,144.233,Hughenden,Queensland,Australia,Flinders Shire
-20.853,144.226,Hughenden,Queensland,Australia,Flinders Shire
-19.204,144.37,,,,
-19.546,145.253,,,,
-21.117,144.81,,,,
-18.147,144.318,Mount Surprise,Queensland,Australia,Etheridge Shire
-19.254,144.154,,,,
-20.871,144.6,,,,
-20.894,142.144,Julia Creek,Queensland,Australia,McKinlay Shire
-20.729,143.142,Richmond,Queensland,Australia,
-18.624,144.574,,,,
-21.214,144.364,,,,
-18.684,144.744,,,,
-19.464,144.319,,,,
-20.097,144.988,,,,
-20.095,142.693,,,,
-20.263,143.11,,,,
-19.704,144.378,,,,
-19.971,145.585,,,,
-19.377,144.116,,,,
-19.196,144.001,,,,
-18.081,143.462,Georgetown,Queensland,Australia,
-18.178,143.362,Georgetown,Queensland,Australia,Etheridge Shire
-18.222,143.97,Einasleigh,Queensland,Australia,Etheridge Shire
-18.937,144.491,,,,
-18.838,143.709,,,,
-19.055,144.959,,,,
-18.304,143.531,Georgetown,Queensland,Australia,Etheridge Shire
-20.994,144.643,,,,
-19.635,145.789,,,,
-21.401,142.617,,,,
-19.701,145.656,,,,
-21.044,144.099,,,,
-18.225,144.672,,,,
-20.304,144.245,,,,
-18.456,143.299,Georgetown,Queensland,Australia,Etheridge Shire
-20.702,143.117,Richmond,Queensland,Australia,Richmond Shire
-17.344,145.922,Innisfail,Queensland,Australia,
-16.892,145.419,Cairns,Queensland,Australia,
-15.847,144.875,Lakeland,Queensland,Australia,Cook Shire
-16.933,145.783,Mareeba,Queensland,Australia,
-16.874,145.746,Gordonvale,Queensland,Australia,
-16.097,145.458,Port Douglas,Queensland,Australia,
-15.449,145.186,Marton,Queensland,Australia,Cook Shire
-17.666,145.436,Atherton,Queensland,Australia,
-17.208,145.909,,,,
-17.535,145.482,,,,
-17.431,145.203,Irvinebank,Queensland,Australia,Mareeba Shire
-16.598,145.363,Julatten,Queensland,Australia,Mareeba Shire
-16.818,145.638,Smithfield Heights,Queensland,Australia,
-16.384,145.559,,,,
-17.069,145.774,Gordonvale,Queensland,Australia,Cairns Regional
-16.457,145.378,Mossman,Queensland,Australia,Douglas Shire
-17.677,145.115,Mount Garnet,Queensland,Australia,Tablelands Regional
-17.093,145.791,Gordonvale,Queensland,Australia,Cairns Regional
-17.344,144.931,,,,
-16.484,145.464,Port Douglas,Queensland,Australia,Douglas Shire
-16.473,145.375,Mossman,Queensland,Australia,Douglas Shire
-16.391,145.351,,,,
-16.996,145.737,Mount Sheridan,Queensland,Australia,Cairns Regional
-17.67,145.241,Innot Hot Springs,Queensland,Australia,Tablelands Regional
-17.169,145.548,Kairi,Queensland,Australia,Tablelands Regional
-17.543,145.512,,,,
-17.767,145.578,,,,
-17.164,145.878,Aloomba,Queensland,Australia,Cairns Regional
-15.421,145.062,,,,
-17.135,145.428,Walkamin,Queensland,Australia,Tablelands Regional
-15.795,145.245,,,,
-17.676,145.278,Innot Hot Springs,Queensland,Australia,Tablelands Regional
-17.344,145.503,,,,
-16.251,145.319,Daintree Village,Queensland,Australia,Douglas Shire
-15.389,145.036,,,,
-17.339,144.68,,,,
-17.27,145.9,,,,
-17.264,145.854,,,,
-17.348,145.892,Babinda,Queensland,Australia,Cairns Regional
-14.668,145.447,Lizard Island,Queensland,Australia,Cook Shire
-18.253,145.127,,,,
-16.928,145.765,Cairns,Queensland,Australia,Parramatta Park
-17.469,145.731,,,,
-17.588,145.6,,,,
-16.532,145.132,,,,
-17.545,145.716,,,,
-17.359,145.592,Malanda,Queensland,Australia,Tablelands Regional
-17.444,145.509,,,,
-17.518,145.609,Millaa Millaa,Queensland,Australia,Tablelands Regional
-17.68,145.66,,,,
-17.004,145.428,Mareeba,Queensland,Australia,Mareeba Shire
-16.658,145.567,,,,
-18.149,145.48,,,,
-17.705,145.146,,,,
-18.039,144.886,,,,
-17.377,145.38,Herberton,Queensland,Australia,Tablelands Regional
-17.591,145.529,,,,
-16.526,145.463,Port Douglas,Queensland,Australia,Douglas Shire
-16.979,145.675,Cairns,Queensland,Australia,Cairns Regional
-15.446,145.186,Marton,Queensland,Australia,Cook Shire
-17.067,145.428,,,,
-14.967,145.311,Hope Vale,Queensland,Australia,Hope Vale Aboriginal Shire
-18.883,146.17,Ingham,Queensland,Australia,
-18.574,146.222,,,,
-18.255,146.02,Cardwell,Queensland,Australia,Cassowary Coast Regional
-17.835,146.099,Bingil Bay,Queensland,Australia,Cassowary Coast Regional
-17.721,145.922,,,,
-17.556,145.956,Pin Gin Hill,Queensland,Australia,Cassowary Coast Regional
-18.582,146.284,Halifax,Queensland,Australia,Hinchinbrook Shire
-17.525,146.034,Innisfail,Queensland,Australia,Webb
-18.933,145.67,,,,
-18.541,146.336,Lucinda,Queensland,Australia,Hinchinbrook Shire
-18.587,146.251,,,,
-17.461,145.882,,,,
-17.605,145.997,South Johnstone,Queensland,Australia,Cassowary Coast Regional
-19.248,146.766,Townsville,Queensland,Australia,
-17.936,145.925,Tully,Queensland,Australia,Cassowary Coast Regional
-18.722,145.924,,,,
-18.651,146.205,,,,
-19.203,146.613,,,,
-19.165,145.421,,,,
-19.007,146.206,,,,
-18.649,146.177,Ingham,Queensland,Australia,Hinchinbrook Shire
-18.563,144.989,,,,
-18.837,145.471,,,,
-19.348,145.981,,,,
-18.499,146.004,Abergowrie,Queensland,Australia,Hinchinbrook Shire
-18.616,146.181,,,,
-19.197,145.775,,,,
-17.481,146.012,,,,
-19.051,146.406,,,,
-18.994,146.019,,,,
-18.956,146.289,Mutarnee,Queensland,Australia,Townsville City
-18.107,145.805,,,,
-18.687,146.297,,,,
-17.655,145.957,Mena Creek,Queensland,Australia,Cassowary Coast Regional
-18.52,146.386,Lucinda,Queensland,Australia,Hinchinbrook Shire
-17.548,145.929,Coorumba,Queensland,Australia,Cassowary Coast Regional
-17.609,145.979,South Johnstone,Queensland,Australia,Cassowary Coast Regional
-17.597,145.901,,,,
-17.615,145.801,East Palmerston,Queensland,Australia,Cassowary Coast Regional
-17.524,146.032,Innisfail,Queensland,Australia,Cassowary Coast Regional
-17.681,145.888,,,,
-17.531,145.846,Nerada,Queensland,Australia,Cassowary Coast Regional
-17.546,145.932,Coorumba,Queensland,Australia,Cassowary Coast Regional
-17.992,145.942,,,,
-18.192,145.332,,,,
-18.412,145.772,,,,
-18.635,146.144,Ingham,Queensland,Australia,Hinchinbrook Shire
-18.461,145.738,,,,
-18.68,145.996,,,,
-18.489,145.936,,,,
-18.144,145.61,,,,
-18.75,146.115,,,,
-18.451,145.829,,,,
-18.579,146.28,Halifax,Queensland,Australia,Hinchinbrook Shire
-18.848,145.907,,,,
-18.586,146.073,Trebonne,Queensland,Australia,Hinchinbrook Shire
-18.547,146.178,,,,
-19.578,147.408,Ayr,Queensland,Australia,
-19.617,147.376,,,,
-22.846,150.648,Yeppoon,Queensland,Australia,
-20.553,147.846,Collinsville,Queensland,Australia,Whitsunday Regional
-21.101,149.102,Mackay,Queensland,Australia,
-19.878,147.687,Bowen,Queensland,Australia,
-19.667,147.415,Home Hill,Queensland,Australia,Burdekin Shire
-19.524,147.416,,,,
-21.626,149.237,Sarina,Queensland,Australia,
-20.539,148.657,Cannonvale,Queensland,Australia,
-21.171,149.179,Andergrove,Queensland,Australia,
-19.879,146.632,Charters Towers,Queensland,Australia,
-21.001,148.936,North Mackay,Queensland,Australia,
-21.689,148.688,,,,
-21.427,149.216,Sarina,Queensland,Australia,Mackay Regional
-21.142,149.038,Pleystowe,Queensland,Australia,Mackay Regional
-20.1,146.889,Ravenswood,Queensland,Australia,Charters Towers Regional
-21.163,148.87,Mirani,Queensland,Australia,Mackay Regional
-21.93,149.364,Carmila,Queensland,Australia,Carmila West
-19.831,147.13,,,,
-23.133,150.367,Rockhampton,Queensland,Australia,
-23.097,150.734,,,,
-21.0,148.738,Mount Charlton,Queensland,Australia,Mackay Regional
-20.499,147.628,,,,
-22.12,149.065,,,,
-20.013,148.225,Bowen,Queensland,Australia,Whitsunday Regional
-21.803,149.357,West Hill,Queensland,Australia,Isaac Regional
-20.208,148.13,Bowen,Queensland,Australia,Whitsunday Regional
-20.366,148.954,Proserpine,Queensland,Australia,
-20.3,148.221,Bowen,Queensland,Australia,Whitsunday Regional
-22.813,149.89,Marlborough,Queensland,Australia,Livingstone Shire
-21.117,149.217,Mackay,Queensland,Australia,Mackay Harbour
-20.428,148.448,,,,
-22.798,150.138,,,,
-21.268,148.97,Eton,Queensland,Australia,Mackay Regional
-20.471,148.724,,,,
-20.187,148.145,Bowen,Queensland,Australia,Whitsunday Regional
-19.595,146.934,,,,
-19.681,146.113,,,,
-20.503,148.344,,,,
-21.167,148.244,,,,
-22.361,149.375,,,,
-21.204,148.544,,,,
-20.214,147.776,,,,
-20.778,147.949,,,,
-21.906,149.443,,,,
-22.034,149.488,,,,
-22.707,149.733,Ogmore,Queensland,Australia,Livingstone Shire
-22.47,150.179,,,,
-22.347,149.524,St Lawrence,Queensland,Australia,Isaac Regional
-19.658,146.834,,,,
-23.224,150.383,Gracemere,Queensland,Australia,
-20.492,148.555,,,,
-22.926,149.522,,,,
-20.344,148.5,,,,
-20.353,148.951,,,,
-23.16,150.96,,,,
-20.419,148.111,,,,
-20.009,148.204,Bowen,Queensland,Australia,Whitsunday Regional
-20.289,148.118,Bowen,Queensland,Australia,Whitsunday Regional
-20.238,148.031,,,,
-20.22,148.122,Bowen,Queensland,Australia,Whitsunday Regional
-20.149,148.156,Bowen,Queensland,Australia,Whitsunday Regional
-20.308,148.218,Bowen,Queensland,Australia,Whitsunday Regional
-20.525,148.212,,,,
-21.179,148.83,,,,
-19.633,147.11,,,,
-20.749,148.583,,,,
-23.088,150.11,,,,
-19.759,147.244,,,,
-19.972,147.251,,,,
-19.643,147.397,Home Hill,Queensland,Australia,Burdekin Shire
-20.142,147.563,,,,
-20.29,147.902,,,,
-20.309,147.296,,,,
-20.582,147.598,,,,
-23.136,150.751,Yeppoon,Queensland,Australia,Livingstone Shire
-19.457,147.483,,,,
-21.272,148.82,,,,
-21.144,149.075,Walkerston,Queensland,Australia,Dumbleton
-21.323,148.835,,,,
-21.177,148.831,,,,
-21.14,149.188,Mackay,Queensland,Australia,Mackay Regional
-21.179,148.746,,,,
-20.41,148.231,,,,
-19.417,146.536,,,,
-22.743,150.658,,,,
-23.2,150.398,,,,
-23.223,150.605,,,,
-22.826,150.337,,,,
-21.805,148.688,,,,
-19.514,147.101,Giru,Queensland,Australia,Burdekin Shire
-20.216,145.909,,,,
-20.702,147.018,,,,
-20.433,146.013,,,,
-22.066,147.722,Moranbah,Queensland,Australia,
-22.457,148.682,,,,
-21.519,146.873,,,,
-22.024,147.416,,,,
-22.774,148.81,,,,
-20.233,146.283,,,,
-21.077,146.513,,,,
-22.534,149.095,,,,
-20.558,146.481,,,,
-20.566,146.382,,,,
-22.721,148.663,Middlemount,Queensland,Australia,Isaac Regional
-22.937,149.139,,,,
-20.046,146.271,,,,
-20.999,146.427,,,,
-20.647,147.137,,,,
-23.65,146.641,Alpha,Queensland,Australia,Barcaldine Regional
-23.552,147.746,Emerald,Queensland,Australia,
-24.034,148.406,,,,
-23.882,148.964,,,,
-24.571,149.292,,,,
-26.121,149.961,Wandoan,Queensland,Australia,Western Downs Regional
-25.402,149.104,,,,
-23.086,148.024,Capella,Queensland,Australia,Central Highlands Regional
-24.809,147.752,,,,
-22.824,147.642,Clermont,Queensland,Australia,Isaac Regional
-23.604,148.546,,,,
-23.714,149.672,Duaringa,Queensland,Australia,Central Highlands Regional
-26.356,150.046,,,,
-25.581,148.481,,,,
-24.412,147.246,,,,
-24.561,145.787,Blackall,Queensland,Australia,Blackall Tambo Regional
-23.186,147.354,,,,
-23.462,147.721,Sapphire,Queensland,Australia,Central Highlands Regional
-24.211,148.74,,,,
-24.448,147.899,,,,
-24.123,148.086,Springsure,Queensland,Australia,Central Highlands Regional
-24.532,148.351,,,,
-25.61,148.944,,,,
-24.882,146.256,Tambo,Queensland,Australia,Blackall Tambo Regional
-25.641,149.796,Taroom,Queensland,Australia,Banana Shire
-24.886,146.278,Tambo,Queensland,Australia,Blackall Tambo Regional
-25.317,146.019,,,,
-24.921,148.601,,,,
-24.622,147.406,,,,
-26.285,149.828,,,,
-22.948,148.275,,,,
-24.334,147.942,,,,
-24.959,148.374,,,,
-25.021,147.951,,,,
-22.483,147.517,,,,
-25.064,146.265,,,,
-22.818,148.49,,,,
-23.877,148.311,,,,
-25.807,149.558,,,,
-25.386,149.784,Theodore,Queensland,Australia,
-23.948,149.611,,,,
-23.133,148.527,,,,
-23.429,148.927,,,,
-25.758,149.407,,,,
-24.057,145.908,Blackall,Queensland,Australia,Blackall Tambo Regional
-25.789,148.922,,,,
-25.28,148.85,,,,
-23.408,146.464,,,,
-24.072,146.614,,,,
-23.454,149.261,,,,
-24.469,149.266,,,,
-25.675,149.633,,,,
-25.031,145.866,,,,
-24.961,148.531,,,,
-22.276,147.443,,,,
-24.025,147.921,,,,
-24.455,148.96,,,,
-24.224,148.096,,,,
-22.622,147.659,,,,
-23.888,148.049,,,,
-23.742,147.539,Willows Gemfields,Queensland,Australia,Central Highlands Regional
-24.398,148.118,,,,
-22.439,147.377,,,,
-24.731,148.76,,,,
-23.304,148.106,,,,
-23.081,147.379,,,,
-24.29,148.105,,,,
-23.652,148.074,,,,
-25.899,150.13,,,,
-25.33,147.863,,,,
-26.028,149.251,,,,
-23.569,148.176,,,,
-22.427,147.548,,,,
-25.798,149.559,,,,
-25.774,149.773,Taroom,Queensland,Australia,Banana Shire
-23.847,148.108,,,,
-23.21,146.878,,,,
-24.871,148.77,,,,
-25.633,149.783,Taroom,Queensland,Australia,Banana Shire
-25.212,146.482,,,,
-23.712,146.168,,,,
-24.864,146.948,,,,
-22.81,144.403,Longreach,Queensland,Australia,Longreach Regional
-22.972,145.245,Aramac,Queensland,Australia,Barcaldine Regional
-21.712,144.393,,,,
-23.554,145.288,Barcaldine,Queensland,Australia,
-21.614,146.634,,,,
-22.207,145.008,Aramac,Queensland,Australia,Barcaldine Regional
-21.375,144.279,,,,
-23.276,145.401,Barcaldine,Queensland,Australia,Barcaldine Regional
-23.031,143.712,Longreach,Queensland,Australia,Longreach Regional
-21.512,144.634,,,,
-24.259,144.441,Isisford,Queensland,Australia,Longreach Regional
-23.437,144.277,Longreach,Queensland,Australia,
-24.43,145.431,Blackall,Queensland,Australia,Blackall Tambo Regional
-23.624,145.689,Barcaldine,Queensland,Australia,Barcaldine Regional
-22.595,144.547,Muttaburra,Queensland,Australia,Barcaldine Regional
-24.562,144.718,Blackall,Queensland,Australia,Blackall Tambo Regional
-21.629,145.117,,,,
-22.023,145.983,,,,
-24.082,145.509,Barcaldine,Queensland,Australia,Barcaldine Regional
-21.511,144.399,,,,
-23.327,144.596,Ilfracombe,Queensland,Australia,Longreach Regional
-22.302,145.99,Aramac,Queensland,Australia,Barcaldine Regional
-22.502,145.918,Aramac,Queensland,Australia,Barcaldine Regional
-22.704,146.569,,,,
-22.458,144.834,Muttaburra,Queensland,Australia,Barcaldine Regional
-24.446,144.109,Isisford,Queensland,Australia,Longreach Regional
-24.243,145.222,Blackall,Queensland,Australia,Blackall Tambo Regional
-23.709,144.525,Ilfracombe,Queensland,Australia,Longreach Regional
-23.606,144.476,Ilfracombe,Queensland,Australia,Longreach Regional
-24.602,143.831,Isisford,Queensland,Australia,Longreach Regional
-25.201,145.227,Blackall,Queensland,Australia,Blackall Tambo Regional
-24.421,145.467,Blackall,Queensland,Australia,Blackall Tambo Regional
-22.232,144.577,Muttaburra,Queensland,Australia,Barcaldine Regional
-23.052,144.81,Ilfracombe,Queensland,Australia,Longreach Regional
-21.376,144.764,,,,
-22.272,147.09,,,,
-24.955,145.249,Blackall,Queensland,Australia,Blackall Tambo Regional
-21.967,144.333,,,,
-22.154,142.49,,,,
-21.968,142.721,Winton,Queensland,Australia,
-22.82,143.385,Longreach,Queensland,Australia,Longreach Regional
-20.466,138.468,,,,
-23.359,141.563,,,,
-22.374,141.285,,,,
-19.922,138.121,Camooweal,Queensland,Australia,
-21.974,140.296,,,,
-23.126,143.462,Longreach,Queensland,Australia,Longreach Regional
-21.356,139.865,,,,
-21.322,138.291,,,,
-21.55,143.803,,,,
-22.717,140.917,,,,
-21.889,143.602,,,,
-22.741,143.334,Longreach,Queensland,Australia,Longreach Regional
-21.812,139.927,,,,
-21.84,140.892,,,,
-22.362,143.084,,,,
-21.565,139.723,,,,
-22.29,142.473,,,,
-22.813,142.832,,,,
-20.115,138.804,,,,
-22.263,143.745,,,,
-21.262,139.725,,,,
-24.042,142.832,,,,
-22.661,142.393,,,,
-21.713,143.375,Stamford,Queensland,Australia,Winton Shire
-23.121,140.568,,,,
-23.312,143.442,Longreach,Queensland,Australia,Longreach Regional
-24.108,143.187,Longreach,Queensland,Australia,Longreach Regional
