lat,long,city,state,country,suburb
25.333,55.517,Dubai,Dubayy,United Arab Emirates,
25.255,55.364,Dubai,Dubayy,United Arab Emirates,
24.433,54.651,Abu Dhabi,Abū Z̧aby,United Arab Emirates,
24.262,55.609,Al ‘Ayn,Abū Z̧aby,United Arab Emirates,
34.21,62.228,Herāt,Herāt,Afghanistan,
34.566,69.212,Kabul,Kābul,Afghanistan,
31.5,65.85,Kandahār,Kandahār,Afghanistan,
36.7167,3.25,Algiers,Alger,Algeria,
30.5667,2.8667,El Golea,Ghardaïa,Algeria,
28.05,9.6331,I-n-Amenas,Illizi,Algeria,
36.72,4.05,Tizi Ouzou,Tizi Ouzou,Algeria,
35.1,-1.85,Ahfir,Oriental,Morocco,
34.85,5.72,Biskra,Biskra,Algeria,
33.7997,2.89,Laghouat,Laghouat,Algeria,
36.795,5.874,Jijel,Jijel,Algeria,
36.933,6.95,Skikda,Skikda,Algeria,
36.822,7.809,Annaba,Annaba,Algeria,
36.767,3.1,Algiers,Alger,Algeria,
36.712,5.07,Bejaïa,Bejaïa,Algeria,
36.467,7.467,Guelma,Guelma,Algeria,
36.276,6.62,Constantine,Constantine,Algeria,
35.867,7.117,Oum el Bouaghi,Oum el Bouaghi,Algeria,
36.283,7.967,Souk Ahras,Souk Ahras,Algeria,
36.213,1.332,Chlef,Chlef,Algeria,
36.3,2.233,Miliana,Aïn Defla,Algeria,Ras El Akba
36.283,2.733,Médéa,Médéa,Algeria,
36.067,4.767,Bordj Bou Arreridj,Bordj Bou Arréridj,Algeria,
36.178,5.324,Sétif,Sétif,Algeria,
35.817,-0.267,Bethioua,Oran,Algeria,
35.883,0.117,Mostaganem,Mostaganem,Algeria,
35.7,-0.65,Oran,Oran,Algeria,
35.667,4.5,M’Sila,M’sila,Algeria,
35.55,6.183,Batna,Batna,Algeria,
35.432,8.121,Tébessa,Tébessa,Algeria,
35.624,-0.621,Oran,Oran,Algeria,
35.208,0.147,Mascara,Mascara,Algeria,
35.341,1.463,Tiaret,Tiaret,Algeria,
35.167,2.317,Zmalet Emir Abdelkader,Tiaret,Algeria,
35.333,4.206,Bou Saâda,M’sila,Algeria,
35.3,-1.35,Bani Saf,Aïn Témouchent,Algeria,
35.2,-0.617,Sidi Bel Abbès,Sidi Bel Abbès,Algeria,
34.82,-1.77,Oujda-Angad,Oriental,Morocco,
35.017,-1.45,Tlemcen,Tlemcen,Algeria,
34.683,3.25,Djelfa,Djelfa,Algeria,
34.867,0.15,Saïda,Saïda,Algeria,
34.15,0.067,El Kheiter,El Bayadh,Algeria,
33.536,-0.242,Mecheria,Naama,Algeria,
33.667,1.0,El Bayadh,El Bayadh,Algeria,
33.068,6.089,Touggourt,Ouargla,Algeria,
33.267,-0.3,Naama,Naama,Algeria,
33.511,6.777,El Oued,El Oued,Algeria,
32.767,-0.6,Aïn Sefra,Naama,Algeria,
32.384,3.794,Ghardaïa,Ghardaïa,Algeria,
31.646,-2.27,Béchar,Béchar,Algeria,
31.917,5.413,Ouargla,Ouargla,Algeria,
31.673,6.14,Hassi Messaoud,Ouargla,Algeria,
30.133,-2.167,Beni Abbès,Béchar,Algeria,
29.717,6.7,Burj Umar Idris,Illizi,Algeria,
29.237,0.276,Timimoun,Adrar,Algeria,
27.838,-0.186,Adrar,Adrar,Algeria,
26.724,8.623,Illizi,Illizi,Algeria,
27.7,-8.167,Tindouf,Tindouf,Algeria,
24.293,9.452,Djanet,Illizi,Algeria,
41.55,46.667,Zaqatala,Zaqatala,Azerbaijan,
41.217,47.167,Şəki,Şəki,Azerbaijan,
41.367,48.517,Quba,Quba,Azerbaijan,
40.7167,46.4167,Gəncə,Gəncə,Azerbaijan,
40.983,47.867,Qazmalar,Qəbələ,Azerbaijan,
40.617,47.15,Mingəçevir,Mingəçevir,Azerbaijan,
40.65,47.75,Göyçay,Göyçay,Azerbaijan,
40.533,48.933,Qobustan,Qobustan,Azerbaijan,
39.767,47.75,Beyləqan,Beyləqan,Azerbaijan,
39.967,49.4,Ələt,Bakı,Azerbaijan,
39.4,49.25,Neftçala,Neftçala,Azerbaijan,
38.75,48.817,Lənkəran,Lənkəran,Azerbaijan,
38.5,48.9,Astara,Astara,Azerbaijan,
41.415,19.721,Tirana,Tiranë,Albania,
40.783,43.833,Gyumri,Shirak,Armenia,
40.533,44.383,Aparan,Aragatsotn,Armenia,
40.817,44.5,Vanadzor,Lorri,Armenia,
40.867,45.15,Ijevan,Tavush,Armenia,
40.133,44.05,Iğdır,Iğdır,Turkey,
40.483,44.75,Hrazdan,Kotayk’,Armenia,
40.35,45.1331,Gavarr,Geghark’unik’,Armenia,
39.533,46.017,Sisian,Syunik’,Armenia,
39.2,46.433,Kapan,Syunik’,Armenia,
40.567,45.0,Sevan,Geghark’unik’,Armenia,
-8.85,13.233,Luanda,Luanda,Angola,
-14.933,13.567,Lubango,Huíla,Angola,
-14.3306,-170.7136,Pago Pago,,American Samoa,
-30.267,-57.65,Bella Unión,Artigas,Uruguay,
-22.1,-65.6,Villazón,Potosí,Bolivia,
-27.767,-64.3,Santiago del Estero,Santiago del Estero,Argentina,
-27.45,-59.05,Resistencia,Chaco,Argentina,
-29.383,-66.817,La Rioja,La Rioja,Argentina,
-29.883,-61.95,Ceres,Santa Fe,Argentina,
-29.183,-59.7,Reconquista,Santa Fe,Argentina,
-31.317,-64.217,Córdoba,Córdoba,Argentina,
-31.783,-60.483,Paraná,Entre Ríos,Argentina,
-32.833,-68.783,Godoy Cruz,Mendoza,Argentina,
-34.133,-63.367,Laboulaye,Córdoba,Argentina,
-36.567,-64.266,Santa Rosa,La Pampa,Argentina,
-37.933,-57.583,Mar del Plata,Buenos Aires,Argentina,
-38.95,-68.133,Neuquén,Neuquén,Argentina,
-42.933,-71.15,Esquel,"Buenos Aires, Ciudad Autónoma de",Argentina,
-43.2,-65.266,Trelew,Chubut,Argentina,
-45.783,-67.5,Comodoro Rivadavia,Chubut,Argentina,
-51.617,-69.283,Río Gallegos,Santa Cruz,Argentina,
-24.85,-65.483,Salta,Salta,Argentina,
-34.583,-58.483,Buenos Aires,"Buenos Aires, Ciudad Autónoma de",Argentina,
-38.733,-62.167,Bahía Blanca,Buenos Aires,Argentina,
-23.153,-64.329,San Ramón de la Nueva Orán,Salta,Argentina,
-22.62,-63.794,Tartagal,Salta,Argentina,
-24.393,-65.098,San Salvador de Jujuy,Jujuy,Argentina,
-26.841,-65.105,San Miguel de Tucumán,Tucumán,Argentina,
-26.733,-60.483,Presidencia Roque Sáenz Peña,Chaco,Argentina,
-26.213,-58.228,Formosa,Formosa,Argentina,
-27.446,-58.762,Corrientes,Corrientes,Argentina,
-27.386,-55.971,Posadas,Misiones,Argentina,
-28.596,-65.752,Catamarca,Catamarca,Argentina,
-29.9,-63.683,Villa de María,Córdoba,Argentina,Norte
-29.689,-57.152,Uruguaiana,Rio Grande do Sul,Brazil,
-31.571,-68.418,San Juan,San Juan,Argentina,
-30.367,-66.283,Chamical,La Rioja,Argentina,
-31.945,-65.146,Mina Clavero,Córdoba,Argentina,
-31.667,-63.883,Río Segundo,Córdoba,Argentina,
-31.297,-57.997,Concordia,Entre Ríos,Argentina,
-33.083,-68.417,San Martín,Mendoza,Argentina,
-33.273,-66.356,San Luis,San Luis,Argentina,
-33.73,-65.387,Villa Mercedes,San Luis,Argentina,
-33.085,-64.261,Río Cuarto,Córdoba,Argentina,
-32.684,-62.158,Marcos Juárez,Córdoba,Argentina,
-32.904,-60.785,Rosario,Santa Fe,Argentina,
-33.01,-58.613,Gualeguaychú,Entre Ríos,Argentina,
-35.494,-69.574,Malargüe,Mendoza,Argentina,
-34.588,-68.403,San Rafael,Mendoza,Argentina,
-35.696,-63.758,General Pico,La Pampa,Argentina,
-34.546,-60.931,Junín,Buenos Aires,Argentina,
-34.822,-58.536,Buenos Aires,"Buenos Aires, Ciudad Autónoma de",Argentina,
-34.559,-58.416,Buenos Aires,"Buenos Aires, Ciudad Autónoma de",Argentina,
-34.972,-57.895,La Plata,Buenos Aires,Argentina,
-36.833,-59.883,Azul,Buenos Aires,Argentina,
-37.237,-59.228,Tandil,Buenos Aires,Argentina,
-36.35,-57.733,Dolores,Buenos Aires,Argentina,
-38.387,-60.33,Tres Arroyos,Buenos Aires,Argentina,
-41.151,-71.158,San Carlos de Bariloche,Río Negro,Argentina,
-41.25,-68.733,Remote Southern Region,"Coordinates: -41.25°, -68.73°",Remote Area,
-40.783,-65.1,San Antonio Oeste,Río Negro,Argentina,
-40.869,-63.0,Viedma,Río Negro,Argentina,
-41.943,-71.532,El Bolsón,Río Negro,Argentina,Centro
-46.517,-71.017,Perito Moreno,Santa Cruz,Argentina,
-50.267,-72.05,El Calafate,Santa Cruz,Argentina,
-49.307,-67.803,San Julián,Santa Cruz,Argentina,
-53.778,-67.749,Río Grande,"Tierra del Fuego, Antártida e Islas del Atlántico Sur",Argentina,
-54.843,-68.296,Ushuaia,"Tierra del Fuego, Antártida e Islas del Atlántico Sur",Argentina,
-16.288,149.965,Pacific Ocean,"Coordinates: -16.29°, 149.97°",Remote Area,
-31.542,159.079,Lord Howe Island,New South Wales,Australia,
-54.499,158.937,Remote Southern Region,"Coordinates: -54.50°, 158.94°",Remote Area,
-15.51,128.1503,Wyndham,Western Australia,Australia,
-13.7542,126.1485,Pacific Ocean,"Coordinates: -13.75°, 126.15°",Remote Area,
-14.7883,126.4964,Pacific Ocean,"Coordinates: -14.79°, 126.50°",Remote Area,
-15.4872,128.1247,Wyndham,Western Australia,Australia,
-15.9078,128.1289,Pacific Ocean,"Coordinates: -15.91°, 128.13°",Remote Area,
-16.4181,126.1025,Pacific Ocean,"Coordinates: -16.42°, 126.10°",Remote Area,
-14.2964,126.6453,Kalumburu,Western Australia,Australia,Shire Of Wyndham-East Kimberley
-14.09,126.3867,Pacific Ocean,"Coordinates: -14.09°, 126.39°",Remote Area,
-16.0086,127.9806,Pacific Ocean,"Coordinates: -16.01°, 127.98°",Remote Area,
-15.9572,127.0628,Pacific Ocean,"Coordinates: -15.96°, 127.06°",Remote Area,
-15.3797,126.3114,Pacific Ocean,"Coordinates: -15.38°, 126.31°",Remote Area,
-15.7025,126.3786,Pacific Ocean,"Coordinates: -15.70°, 126.38°",Remote Area,
-15.6394,128.0803,Wyndham,Western Australia,Australia,
-15.7231,127.8297,Pacific Ocean,"Coordinates: -15.72°, 127.83°",Remote Area,
-13.96,127.1964,Pacific Ocean,"Coordinates: -13.96°, 127.20°",Remote Area,
-15.5969,128.2781,Wyndham,Western Australia,Australia,
-16.5039,128.9172,Pacific Ocean,"Coordinates: -16.50°, 128.92°",Remote Area,
-15.4864,128.5344,Kununurra,Western Australia,Australia,Shire Of Wyndham-East Kimberley
-16.4203,126.4411,Ngallagunda,Western Australia,Australia,Shire Of Wyndham-East Kimberley
-18.2292,127.6636,Halls Creek,Western Australia,Australia,
-18.3869,126.9892,Pacific Ocean,"Coordinates: -18.39°, 126.99°",Remote Area,
-18.016,126.3033,Pacific Ocean,"Coordinates: -18.02°, 126.30°",Remote Area,
-18.0308,128.8942,Pacific Ocean,"Coordinates: -18.03°, 128.89°",Remote Area,
-18.5958,127.6419,Billiluna,Western Australia,Australia,Shire of Halls Creek
-19.1625,128.1633,Pacific Ocean,"Coordinates: -19.16°, 128.16°",Remote Area,
-17.2964,126.915,Pacific Ocean,"Coordinates: -17.30°, 126.92°",Remote Area,
-17.0156,128.2175,Warmun,Western Australia,Australia,Shire of Halls Creek
-17.3922,126.2306,Pacific Ocean,"Coordinates: -17.39°, 126.23°",Remote Area,
-18.3368,126.1243,Pacific Ocean,"Coordinates: -18.34°, 126.12°",Remote Area,
-16.1119,128.7414,Lake Argyle,Western Australia,Australia,Shire Of Wyndham-East Kimberley
-17.2631,127.4617,Pacific Ocean,"Coordinates: -17.26°, 127.46°",Remote Area,
-18.2972,128.4419,Pacific Ocean,"Coordinates: -18.30°, 128.44°",Remote Area,
-18.1947,127.8147,Halls Creek,Western Australia,Australia,
-17.7842,127.6853,Pacific Ocean,"Coordinates: -17.78°, 127.69°",Remote Area,
-17.6133,126.7442,Pacific Ocean,"Coordinates: -17.61°, 126.74°",Remote Area,
-15.7814,128.71,Kununurra,Western Australia,Australia,
-16.0397,128.415,Pacific Ocean,"Coordinates: -16.04°, 128.41°",Remote Area,
-19.2353,127.7692,Pacific Ocean,"Coordinates: -19.24°, 127.77°",Remote Area,
-16.6381,128.4517,Argyle Village,Western Australia,Australia,Shire Of Wyndham-East Kimberley
-15.9816,128.9991,Pacific Ocean,"Coordinates: -15.98°, 129.00°",Remote Area,
-16.4433,127.7836,Pacific Ocean,"Coordinates: -16.44°, 127.78°",Remote Area,
-17.2767,122.5711,Pacific Ocean,"Coordinates: -17.28°, 122.57°",Remote Area,
-17.9475,122.2353,Broome,Western Australia,Australia,
-17.9281,124.8108,Pacific Ocean,"Coordinates: -17.93°, 124.81°",Remote Area,
-18.355,125.3033,Pacific Ocean,"Coordinates: -18.36°, 125.30°",Remote Area,
-17.3897,124.3578,Pacific Ocean,"Coordinates: -17.39°, 124.36°",Remote Area,
-18.2914,125.5869,Pacific Ocean,"Coordinates: -18.29°, 125.59°",Remote Area,
-17.0522,125.7047,Pacific Ocean,"Coordinates: -17.05°, 125.70°",Remote Area,
-18.1219,124.2692,Pacific Ocean,"Coordinates: -18.12°, 124.27°",Remote Area,
-17.3306,124.8167,Pacific Ocean,"Coordinates: -17.33°, 124.82°",Remote Area,
-18.5,124.3992,Pacific Ocean,"Coordinates: -18.50°, 124.40°",Remote Area,
-17.9464,123.7383,Pacific Ocean,"Coordinates: -17.95°, 123.74°",Remote Area,
-17.6153,123.6483,Pacific Ocean,"Coordinates: -17.62°, 123.65°",Remote Area,
-18.1386,125.7764,Pacific Ocean,"Coordinates: -18.14°, 125.78°",Remote Area,
-19.2536,121.4861,Pacific Ocean,"Coordinates: -19.25°, 121.49°",Remote Area,
-18.6844,121.7803,Bidyadanga,Western Australia,Australia,Shire Of Broome
-17.3706,123.6611,Derby,Western Australia,Australia,Shire Of Derby-West Kimberley
-17.7472,124.5283,Pacific Ocean,"Coordinates: -17.75°, 124.53°",Remote Area,
-17.9903,124.1922,Pacific Ocean,"Coordinates: -17.99°, 124.19°",Remote Area,
-17.6925,122.7128,Pacific Ocean,"Coordinates: -17.69°, 122.71°",Remote Area,
-18.9158,125.5264,Pacific Ocean,"Coordinates: -18.92°, 125.53°",Remote Area,
-16.7372,125.9086,Kupungarri,Western Australia,Australia,Shire Of Derby-West Kimberley
-16.4514,123.0086,Ardyaloon,Western Australia,Australia,Shire Of Broome
-19.0861,121.6764,Pacific Ocean,"Coordinates: -19.09°, 121.68°",Remote Area,
-16.715,125.4586,Pacific Ocean,"Coordinates: -16.71°, 125.46°",Remote Area,
-18.5175,121.8072,Pacific Ocean,"Coordinates: -18.52°, 121.81°",Remote Area,
-18.5075,123.4561,Pacific Ocean,"Coordinates: -18.51°, 123.46°",Remote Area,
-16.6872,123.8375,Pacific Ocean,"Coordinates: -16.69°, 123.84°",Remote Area,
-17.3117,123.6356,Derby,Western Australia,Australia,Karmulinunga
-17.5736,123.8217,Pacific Ocean,"Coordinates: -17.57°, 123.82°",Remote Area,
-17.3436,123.6781,Derby,Western Australia,Australia,Shire Of Derby-West Kimberley
-17.7278,123.6547,Pacific Ocean,"Coordinates: -17.73°, 123.65°",Remote Area,
-18.8375,126.5247,Pacific Ocean,"Coordinates: -18.84°, 126.52°",Remote Area,
-17.7981,124.0772,Pacific Ocean,"Coordinates: -17.80°, 124.08°",Remote Area,
-18.1814,125.5619,Fitzroy Crossing,Western Australia,Australia,Junjuwa
-17.0549,125.7108,Pacific Ocean,"Coordinates: -17.05°, 125.71°",Remote Area,
-17.9503,124.2653,Pacific Ocean,"Coordinates: -17.95°, 124.27°",Remote Area,
-18.1133,125.3428,Pacific Ocean,"Coordinates: -18.11°, 125.34°",Remote Area,
-20.9264,120.2075,Marble Bar,Western Australia,Australia,Shire of East Pilbara
-22.1828,119.935,Nullagine,Western Australia,Australia,Shire of East Pilbara
-20.6392,119.2431,Marble Bar,Western Australia,Australia,Shire of East Pilbara
-20.1764,119.1906,Pacific Ocean,"Coordinates: -20.18°, 119.19°",Remote Area,
-21.7219,119.3989,Nullagine,Western Australia,Australia,Shire of East Pilbara
-20.7867,118.5972,Pacific Ocean,"Coordinates: -20.79°, 118.60°",Remote Area,
-19.7419,120.8436,Pacific Ocean,"Coordinates: -19.74°, 120.84°",Remote Area,
-20.6333,120.0544,Marble Bar,Western Australia,Australia,Shire of East Pilbara
-22.2914,120.1761,Nullagine,Western Australia,Australia,Shire of East Pilbara
-20.1078,119.5811,Pacific Ocean,"Coordinates: -20.11°, 119.58°",Remote Area,
-20.3725,118.6317,Port Hedland,Western Australia,Australia,
-21.0561,117.4436,Pacific Ocean,"Coordinates: -21.06°, 117.44°",Remote Area,
-20.4681,119.0556,Pacific Ocean,"Coordinates: -20.47°, 119.06°",Remote Area,
-20.7483,118.8172,Marble Bar,Western Australia,Australia,Town Of Port Hedland
-20.9469,117.3733,Pacific Ocean,"Coordinates: -20.95°, 117.37°",Remote Area,
-20.8503,120.695,Marble Bar,Western Australia,Australia,Shire of East Pilbara
-20.6739,120.2044,Marble Bar,Western Australia,Australia,Shire of East Pilbara
-19.7789,120.6417,Pacific Ocean,"Coordinates: -19.78°, 120.64°",Remote Area,
-20.7097,116.7742,Karratha,Western Australia,Australia,
-20.8956,117.6447,Pacific Ocean,"Coordinates: -20.90°, 117.64°",Remote Area,
-20.7594,117.1583,Roebourne,Western Australia,Australia,
-21.2933,120.4658,Marble Bar,Western Australia,Australia,Shire of East Pilbara
-21.1756,119.7497,Marble Bar,Western Australia,Australia,Shire of East Pilbara
-21.8047,117.8056,Pacific Ocean,"Coordinates: -21.80°, 117.81°",Remote Area,
-22.9119,116.2903,Pacific Ocean,"Coordinates: -22.91°, 116.29°",Remote Area,
-22.2406,114.0967,Pacific Ocean,"Coordinates: -22.24°, 114.10°",Remote Area,
-21.1906,115.9797,Pacific Ocean,"Coordinates: -21.19°, 115.98°",Remote Area,
-22.6331,119.4081,Newman,Western Australia,Australia,Shire of East Pilbara
-21.9961,115.0456,Pacific Ocean,"Coordinates: -22.00°, 115.05°",Remote Area,
-21.7869,117.8647,Pacific Ocean,"Coordinates: -21.79°, 117.86°",Remote Area,
-21.6689,115.1092,Onslow,Western Australia,Australia,
-21.975,116.0653,Pacific Ocean,"Coordinates: -21.98°, 116.07°",Remote Area,
-22.2425,118.3358,Pacific Ocean,"Coordinates: -22.24°, 118.34°",Remote Area,
-21.6767,116.3928,Pannawonica,Western Australia,Australia,
-22.4558,116.0508,Pacific Ocean,"Coordinates: -22.46°, 116.05°",Remote Area,
-22.9367,115.9825,Pacific Ocean,"Coordinates: -22.94°, 115.98°",Remote Area,
-21.1594,116.1197,Pacific Ocean,"Coordinates: -21.16°, 116.12°",Remote Area,
-21.9303,114.1256,Exmouth,Western Australia,Australia,
-20.7278,116.7483,Karratha,Western Australia,Australia,
-22.7817,115.3706,Pacific Ocean,"Coordinates: -22.78°, 115.37°",Remote Area,
-21.6392,116.3308,Pannawonica,Western Australia,Australia,
-21.3567,115.8208,Pacific Ocean,"Coordinates: -21.36°, 115.82°",Remote Area,
-21.3444,115.9356,Pacific Ocean,"Coordinates: -21.34°, 115.94°",Remote Area,
-21.8836,118.2217,Pacific Ocean,"Coordinates: -21.88°, 118.22°",Remote Area,
-21.7672,114.8211,Pacific Ocean,"Coordinates: -21.77°, 114.82°",Remote Area,
-21.0544,116.2575,Pacific Ocean,"Coordinates: -21.05°, 116.26°",Remote Area,
-22.8853,117.4464,Pacific Ocean,"Coordinates: -22.89°, 117.45°",Remote Area,
-21.2475,116.0733,Pacific Ocean,"Coordinates: -21.25°, 116.07°",Remote Area,
-20.875,115.4056,Pacific Ocean,"Coordinates: -20.88°, 115.41°",Remote Area,
-22.9367,116.9731,Pacific Ocean,"Coordinates: -22.94°, 116.97°",Remote Area,
-25.0417,115.3092,Gascoyne Junction,Western Australia,Australia,Shire Of Upper Gascoyne
-24.6525,113.6936,Carnarvon,Western Australia,Australia,
-25.0481,114.0294,Pacific Ocean,"Coordinates: -25.05°, 114.03°",Remote Area,
-25.6114,115.4625,Pacific Ocean,"Coordinates: -25.61°, 115.46°",Remote Area,
-24.8878,113.67,Carnarvon,Western Australia,Australia,
-24.8061,114.4322,Pacific Ocean,"Coordinates: -24.81°, 114.43°",Remote Area,
-25.36,114.2292,Pacific Ocean,"Coordinates: -25.36°, 114.23°",Remote Area,
-25.0544,115.21,Gascoyne Junction,Western Australia,Australia,Shire Of Upper Gascoyne
-23.8222,113.5256,Pacific Ocean,"Coordinates: -23.82°, 113.53°",Remote Area,
-26.4275,114.1919,Pacific Ocean,"Coordinates: -26.43°, 114.19°",Remote Area,
-25.0442,115.1331,Pacific Ocean,"Coordinates: -25.04°, 115.13°",Remote Area,
-25.3656,114.3594,Pacific Ocean,"Coordinates: -25.37°, 114.36°",Remote Area,
-23.3817,114.4375,Pacific Ocean,"Coordinates: -23.38°, 114.44°",Remote Area,
-25.9261,113.5319,Denham,Western Australia,Australia,Shire Of Shark Bay
-26.6969,113.7158,Pacific Ocean,"Coordinates: -26.70°, 113.72°",Remote Area,
-25.3017,115.1161,Pacific Ocean,"Coordinates: -25.30°, 115.12°",Remote Area,
-27.7458,115.8286,Pacific Ocean,"Coordinates: -27.75°, 115.83°",Remote Area,
-27.4278,115.5147,Murchison,Western Australia,Australia,Shire Of Murchison
-25.9436,114.3222,Pacific Ocean,"Coordinates: -25.94°, 114.32°",Remote Area,
-25.4906,114.3981,Pacific Ocean,"Coordinates: -25.49°, 114.40°",Remote Area,
-26.5903,115.9267,Murchison,Western Australia,Australia,Shire Of Murchison
-24.3058,114.5003,Pacific Ocean,"Coordinates: -24.31°, 114.50°",Remote Area,
-23.0314,115.0414,Pacific Ocean,"Coordinates: -23.03°, 115.04°",Remote Area,
-23.4853,113.7811,Pacific Ocean,"Coordinates: -23.49°, 113.78°",Remote Area,
-24.3967,113.4056,Pacific Ocean,"Coordinates: -24.40°, 113.41°",Remote Area,
-26.1203,113.3975,Useless Loop,Western Australia,Australia,Shire Of Shark Bay
-25.0294,115.8628,Pacific Ocean,"Coordinates: -25.03°, 115.86°",Remote Area,
-26.8936,115.9561,Murchison,Western Australia,Australia,Shire Of Murchison
-26.1764,113.215,Pacific Ocean,"Coordinates: -26.18°, 113.22°",Remote Area,
-25.8925,113.5772,Denham,Western Australia,Australia,Shire Of Shark Bay
-25.0381,115.9953,Pacific Ocean,"Coordinates: -25.04°, 116.00°",Remote Area,
-26.9667,117.9167,Pacific Ocean,"Coordinates: -26.97°, 117.92°",Remote Area,
-26.0417,116.9528,Pacific Ocean,"Coordinates: -26.04°, 116.95°",Remote Area,
-26.9844,116.5361,Pacific Ocean,"Coordinates: -26.98°, 116.54°",Remote Area,
-28.7839,117.3625,Pacific Ocean,"Coordinates: -28.78°, 117.36°",Remote Area,
-27.2528,117.6525,Pacific Ocean,"Coordinates: -27.25°, 117.65°",Remote Area,
-27.4233,117.8994,Cue,Western Australia,Australia,Shire Of Cue
-24.0019,119.5725,Pacific Ocean,"Coordinates: -24.00°, 119.57°",Remote Area,
-25.6864,119.2258,Pacific Ocean,"Coordinates: -25.69°, 119.23°",Remote Area,
-28.2731,117.1544,Yalgoo,Western Australia,Australia,Shire Of Yalgoo
-28.2494,116.34,Yalgoo,Western Australia,Australia,Shire Of Yalgoo
-26.1142,117.5047,Meekatharra,Western Australia,Australia,Shire of Meekatharra
-27.7447,116.7442,Yalgoo,Western Australia,Australia,Shire Of Yalgoo
-28.5564,117.7803,Pacific Ocean,"Coordinates: -28.56°, 117.78°",Remote Area,
-26.6136,118.5372,Meekatharra,Western Australia,Australia,
-27.4222,116.825,Yalgoo,Western Australia,Australia,Shire Of Yalgoo
-26.3736,117.3339,Pacific Ocean,"Coordinates: -26.37°, 117.33°",Remote Area,
-24.3086,116.9111,Pacific Ocean,"Coordinates: -24.31°, 116.91°",Remote Area,
-27.8794,117.5506,Pacific Ocean,"Coordinates: -27.88°, 117.55°",Remote Area,
-24.4,116.3078,Pacific Ocean,"Coordinates: -24.40°, 116.31°",Remote Area,
-24.2297,118.2408,Pacific Ocean,"Coordinates: -24.23°, 118.24°",Remote Area,
-27.3636,116.4261,Pacific Ocean,"Coordinates: -27.36°, 116.43°",Remote Area,
-28.6519,117.6083,Pacific Ocean,"Coordinates: -28.65°, 117.61°",Remote Area,
-29.425,117.2906,Pacific Ocean,"Coordinates: -29.43°, 117.29°",Remote Area,
-29.1886,117.9222,Sandstone,Western Australia,Australia,Shire Of Sandstone
-26.5597,118.5397,Meekatharra,Western Australia,Australia,
-25.1256,119.1514,Pacific Ocean,"Coordinates: -25.13°, 119.15°",Remote Area,
-28.8928,117.1333,Pacific Ocean,"Coordinates: -28.89°, 117.13°",Remote Area,
-23.6239,118.6561,Pacific Ocean,"Coordinates: -23.62°, 118.66°",Remote Area,
-27.0878,116.1606,Murchison,Western Australia,Australia,Shire Of Murchison
-24.6514,116.1647,Pacific Ocean,"Coordinates: -24.65°, 116.16°",Remote Area,
-28.2322,117.6556,Mount Magnet,Western Australia,Australia,
-27.9808,116.0347,Pacific Ocean,"Coordinates: -27.98°, 116.03°",Remote Area,
-27.8608,118.4183,Pacific Ocean,"Coordinates: -27.86°, 118.42°",Remote Area,
-27.1308,118.7803,Meekatharra,Western Australia,Australia,Shire of Meekatharra
-25.6933,118.0803,Meekatharra,Western Australia,Australia,Shire of Meekatharra
-26.2822,118.6933,Meekatharra,Western Australia,Australia,Shire of Meekatharra
-25.48,119.6492,Pacific Ocean,"Coordinates: -25.48°, 119.65°",Remote Area,
-23.9958,117.5225,Pacific Ocean,"Coordinates: -24.00°, 117.52°",Remote Area,
-23.3856,117.0319,Pacific Ocean,"Coordinates: -23.39°, 117.03°",Remote Area,
-25.2806,116.2083,Pacific Ocean,"Coordinates: -25.28°, 116.21°",Remote Area,
-27.8036,116.8856,Yalgoo,Western Australia,Australia,Shire Of Yalgoo
-26.0747,116.6942,Murchison,Western Australia,Australia,Shire Of Murchison
-25.0964,117.5922,Pacific Ocean,"Coordinates: -25.10°, 117.59°",Remote Area,
-26.795,118.9842,Meekatharra,Western Australia,Australia,Shire of Meekatharra
-29.2708,117.6836,Pacific Ocean,"Coordinates: -29.27°, 117.68°",Remote Area,
-26.5942,118.4883,Meekatharra,Western Australia,Australia,
-23.5531,119.1478,Pacific Ocean,"Coordinates: -23.55°, 119.15°",Remote Area,
-27.5486,118.2172,Cue,Western Australia,Australia,Shire Of Cue
-26.2628,119.7639,Meekatharra,Western Australia,Australia,Shire of Meekatharra
-25.4636,117.1361,Pacific Ocean,"Coordinates: -25.46°, 117.14°",Remote Area,
-23.7639,116.1197,Pacific Ocean,"Coordinates: -23.76°, 116.12°",Remote Area,
-24.9483,118.7147,Pacific Ocean,"Coordinates: -24.95°, 118.71°",Remote Area,
-23.4169,119.7989,Newman,Western Australia,Australia,
-23.6042,117.6892,Pacific Ocean,"Coordinates: -23.60°, 117.69°",Remote Area,
-24.4114,118.9408,Pacific Ocean,"Coordinates: -24.41°, 118.94°",Remote Area,
-23.9775,120.0108,Pacific Ocean,"Coordinates: -23.98°, 120.01°",Remote Area,
-23.1725,117.7494,Paraburdoo,Western Australia,Australia,Shire Of Ashburton
-27.3161,117.97,Sandstone,Western Australia,Australia,Shire Of Cue
-27.0503,117.6503,Pacific Ocean,"Coordinates: -27.05°, 117.65°",Remote Area,
-26.0783,116.1533,Murchison,Western Australia,Australia,Shire Of Murchison
-28.2817,118.3111,Pacific Ocean,"Coordinates: -28.28°, 118.31°",Remote Area,
-24.1847,119.7175,Pacific Ocean,"Coordinates: -24.18°, 119.72°",Remote Area,
-25.6939,116.5381,Murchison,Western Australia,Australia,Shire Of Murchison
-28.1156,117.8425,Mount Magnet,Western Australia,Australia,
-30.5967,116.7714,Ballidu,Western Australia,Australia,Shire Of Wongan-Ballidu
-28.0058,114.2206,Pacific Ocean,"Coordinates: -28.01°, 114.22°",Remote Area,
-30.7294,116.02,Remote Southern Region,"Coordinates: -30.73°, 116.02°",Remote Area,
-28.8956,115.8106,Pacific Ocean,"Coordinates: -28.90°, 115.81°",Remote Area,
-30.5831,116.135,Moora,Western Australia,Australia,Shire Of Moora
-30.6286,116.3861,Remote Southern Region,"Coordinates: -30.63°, 116.39°",Remote Area,
-29.3303,116.1433,Morawa,Western Australia,Australia,
-30.2192,116.7783,Dalwallinu,Western Australia,Australia,Shire Of Dalwallinu
-30.445,117.0406,Remote Southern Region,"Coordinates: -30.45°, 117.04°",Remote Area,
-29.9869,116.5711,Buntine,Western Australia,Australia,Shire Of Dalwallinu
-30.2911,116.3306,Miling,Western Australia,Australia,Shire Of Moora
-29.6889,115.8869,Three Springs,Western Australia,Australia,
-28.5008,114.7897,Pacific Ocean,"Coordinates: -28.50°, 114.79°",Remote Area,
-29.8819,116.0233,Coorow,Western Australia,Australia,Shire Of Coorow
-29.2528,114.9306,Port Denison,Western Australia,Australia,
-30.9133,116.8092,Wongan Hills,Western Australia,Australia,Shire Of Wongan-Ballidu
-29.4714,115.8528,Three Springs,Western Australia,Australia,
-28.7769,114.605,Geraldton,Western Australia,Australia,
-28.7953,114.6975,Geraldton,Western Australia,Australia,
-28.17,114.7614,Pacific Ocean,"Coordinates: -28.17°, 114.76°",Remote Area,
-29.5486,115.0689,Pacific Ocean,"Coordinates: -29.55°, 115.07°",Remote Area,
-29.0364,115.5536,Pacific Ocean,"Coordinates: -29.04°, 115.55°",Remote Area,
-30.2842,116.6328,Dalwallinu,Western Australia,Australia,Shire Of Dalwallinu
-30.6719,116.3078,Remote Southern Region,"Coordinates: -30.67°, 116.31°",Remote Area,
-28.4292,114.6542,Pacific Ocean,"Coordinates: -28.43°, 114.65°",Remote Area,
-30.7008,117.0608,Cadoux,Western Australia,Australia,Shire Of Wongan-Ballidu
-29.9414,116.2003,Pacific Ocean,"Coordinates: -29.94°, 116.20°",Remote Area,
-29.7586,116.4444,Latham,Western Australia,Australia,Shire Of Perenjori
-28.2103,114.305,Pacific Ocean,"Coordinates: -28.21°, 114.31°",Remote Area,
-29.6006,115.9392,Three Springs,Western Australia,Australia,
-29.2419,115.7794,Morawa,Western Australia,Australia,
-29.0711,115.6261,Pacific Ocean,"Coordinates: -29.07°, 115.63°",Remote Area,
-30.4919,116.3628,Miling,Western Australia,Australia,Shire Of Moora
-30.4228,116.4583,Miling,Western Australia,Australia,Shire Of Moora
-29.1906,115.4414,Mingenew,Western Australia,Australia,Shire of Mingenew
-28.5367,115.5142,Mullewa,Western Australia,Australia,City Of Greater Geraldton
-28.1525,114.5689,Nain,Western Australia,Australia,Shire of Northampton
-28.3456,114.6367,Northampton,Western Australia,Australia,Shire of Northampton
-28.1544,114.6692,Pacific Ocean,"Coordinates: -28.15°, 114.67°",Remote Area,
-29.3692,116.4061,Pacific Ocean,"Coordinates: -29.37°, 116.41°",Remote Area,
-29.4417,116.2875,Perenjori,Western Australia,Australia,Shire Of Perenjori
-28.4767,115.7897,Pacific Ocean,"Coordinates: -28.48°, 115.79°",Remote Area,
-27.8325,114.7364,Murchison,Western Australia,Australia,Shire of Northampton
-28.7894,114.9417,Pacific Ocean,"Coordinates: -28.79°, 114.94°",Remote Area,
-29.5339,115.7628,Three Springs,Western Australia,Australia,
-28.5536,115.2456,Pacific Ocean,"Coordinates: -28.55°, 115.25°",Remote Area,
-30.2992,116.0589,Watheroo,Western Australia,Australia,Shire Of Moora
-30.8917,116.7186,Wongan Hills,Western Australia,Australia,Shire Of Wongan-Ballidu
-30.1069,116.6328,Wubin,Western Australia,Australia,Shire Of Dalwallinu
-28.3811,114.4531,Pacific Ocean,"Coordinates: -28.38°, 114.45°",Remote Area,
-29.2872,115.6331,Three Springs,Western Australia,Australia,
-30.0706,116.2092,Remote Southern Region,"Coordinates: -30.07°, 116.21°",Remote Area,
-28.325,114.9589,Pacific Ocean,"Coordinates: -28.32°, 114.96°",Remote Area,
-28.8978,115.8628,Pacific Ocean,"Coordinates: -28.90°, 115.86°",Remote Area,
-28.5467,114.6244,Geraldton,Western Australia,Australia,
-29.1858,115.7406,Morawa,Western Australia,Australia,
-30.6583,116.9344,Remote Southern Region,"Coordinates: -30.66°, 116.93°",Remote Area,
-28.6936,115.0408,Pacific Ocean,"Coordinates: -28.69°, 115.04°",Remote Area,
-30.6219,116.3794,Remote Southern Region,"Coordinates: -30.62°, 116.38°",Remote Area,
-29.8183,115.2722,Eneabba,Western Australia,Australia,Shire Of Carnamah
-30.3817,116.7217,Pithara,Western Australia,Australia,Shire Of Dalwallinu
-29.4667,116.1325,Perenjori,Western Australia,Australia,Shire Of Perenjori
-29.4847,116.0703,Perenjori,Western Australia,Australia,Shire Of Perenjori
-28.5675,115.2814,Pacific Ocean,"Coordinates: -28.57°, 115.28°",Remote Area,
-28.6857,115.2806,Pacific Ocean,"Coordinates: -28.69°, 115.28°",Remote Area,
-30.0989,116.2339,Remote Southern Region,"Coordinates: -30.10°, 116.23°",Remote Area,
-28.8939,115.4539,Pacific Ocean,"Coordinates: -28.89°, 115.45°",Remote Area,
-27.7119,114.165,Kalbarri,Western Australia,Australia,
-30.7092,116.7744,Kondut,Western Australia,Australia,Shire Of Wongan-Ballidu
-29.5147,116.8011,Pacific Ocean,"Coordinates: -29.51°, 116.80°",Remote Area,
-28.8114,115.9675,Pacific Ocean,"Coordinates: -28.81°, 115.97°",Remote Area,
-29.3586,115.4503,Pacific Ocean,"Coordinates: -29.36°, 115.45°",Remote Area,
-28.4194,114.8186,Pacific Ocean,"Coordinates: -28.42°, 114.82°",Remote Area,
-30.3678,116.2653,Watheroo,Western Australia,Australia,Shire Of Moora
-29.2236,115.1075,Port Denison,Western Australia,Australia,
-30.0722,115.3136,Remote Southern Region,"Coordinates: -30.07°, 115.31°",Remote Area,
-27.5658,114.6733,Pacific Ocean,"Coordinates: -27.57°, 114.67°",Remote Area,
-30.1453,116.3844,Wubin,Western Australia,Australia,Shire Of Dalwallinu
-28.3181,114.7614,Pacific Ocean,"Coordinates: -28.32°, 114.76°",Remote Area,
-28.275,114.6761,Pacific Ocean,"Coordinates: -28.27°, 114.68°",Remote Area,
-28.2575,114.6033,Pacific Ocean,"Coordinates: -28.26°, 114.60°",Remote Area,
-28.3008,113.5936,Pacific Ocean,"Coordinates: -28.30°, 113.59°",Remote Area,
-28.5164,115.37,Pacific Ocean,"Coordinates: -28.52°, 115.37°",Remote Area,
-28.2094,115.285,Pacific Ocean,"Coordinates: -28.21°, 115.28°",Remote Area,
-29.2094,115.2628,Pacific Ocean,"Coordinates: -29.21°, 115.26°",Remote Area,
-29.2039,116.0247,Morawa,Western Australia,Australia,
-30.2761,116.6714,Dalwallinu,Western Australia,Australia,Shire Of Dalwallinu
-28.7597,114.937,Pacific Ocean,"Coordinates: -28.76°, 114.94°",Remote Area,
-29.1103,115.3173,Pacific Ocean,"Coordinates: -29.11°, 115.32°",Remote Area,
-29.0692,115.0915,Port Denison,Western Australia,Australia,
-28.9571,114.9492,Pacific Ocean,"Coordinates: -28.96°, 114.95°",Remote Area,
-29.2778,114.9464,Port Denison,Western Australia,Australia,
-28.0636,115.1903,Pacific Ocean,"Coordinates: -28.06°, 115.19°",Remote Area,
-28.89,115.4397,Pacific Ocean,"Coordinates: -28.89°, 115.44°",Remote Area,
-28.8,115.76,Mullewa,Western Australia,Australia,City Of Greater Geraldton
-29.3,115.6597,Three Springs,Western Australia,Australia,
-29.0291,115.5548,Pacific Ocean,"Coordinates: -29.03°, 115.55°",Remote Area,
-32.1303,116.0053,Perth,Western Australia,Australia,
-30.6256,115.7803,Dandaragan,Western Australia,Australia,Shire Of Dandaragan
-31.8622,116.2658,Lesmurdie,Western Australia,Australia,
-31.605,116.1114,Bullsbrook,Western Australia,Australia,
-32.1486,116.0761,Perth,Western Australia,Australia,
-30.6969,115.5817,Dandaragan,Western Australia,Australia,Shire Of Dandaragan
-32.0892,116.125,Perth,Western Australia,Australia,
-31.3461,115.9031,Gingin,Western Australia,Australia,
-31.9275,115.9764,Perth,Western Australia,Australia,
-32.3342,116.0755,Jarrahdale,Western Australia,Australia,Shire of Serpentine-Jarrahdale
-31.5608,116.0842,Bullsbrook,Western Australia,Australia,
-31.8689,116.0167,Perth,Western Australia,Australia,
-31.8972,116.1575,Perth,Western Australia,Australia,
-31.9564,116.1642,Perth,Western Australia,Australia,
-30.9719,116.2089,Remote Southern Region,"Coordinates: -30.97°, 116.21°",Remote Area,
-30.3381,115.5394,Badgingarra,Western Australia,Australia,Shire Of Dandaragan
-32.3536,116.005,Kwinana,Western Australia,Australia,
-31.1428,116.0539,Gingin,Western Australia,Australia,
-32.1969,116.0617,Perth,Western Australia,Australia,
-31.6669,116.0189,Bullsbrook,Western Australia,Australia,
-31.8092,115.9997,Perth,Western Australia,Australia,
-31.7908,116.1975,Lesmurdie,Western Australia,Australia,
-31.7317,115.7931,Perth,Western Australia,Australia,
-32.0486,115.9839,Perth,Western Australia,Australia,
-32.44,116.0744,Serpentine,Western Australia,Australia,Keysbrook
-31.3928,116.0875,Gingin,Western Australia,Australia,
-32.1108,116.0953,Perth,Western Australia,Australia,
-31.0164,115.33,Lancelin,Western Australia,Australia,Shire Of Gingin
-32.4022,116.1039,Jarrahdale,Western Australia,Australia,Shire of Serpentine-Jarrahdale
-30.3081,115.0311,Jurien Bay,Western Australia,Australia,Shire Of Dandaragan
-31.8511,116.2539,Lesmurdie,Western Australia,Australia,
-31.0769,115.5083,Remote Southern Region,"Coordinates: -31.08°, 115.51°",Remote Area,
-31.3292,116.0811,Gingin,Western Australia,Australia,
-31.9556,115.7928,Perth,Western Australia,Australia,
-32.1189,116.1206,Perth,Western Australia,Australia,
-32.1011,115.8794,Perth,Western Australia,Australia,
-31.1228,115.4469,Remote Southern Region,"Coordinates: -31.12°, 115.45°",Remote Area,
-31.4628,115.8642,Gingin,Western Australia,Australia,
-30.7994,115.5467,Remote Southern Region,"Coordinates: -30.80°, 115.55°",Remote Area,
-31.9544,116.0014,Perth,Western Australia,Australia,
-32.0533,115.7647,Perth,Western Australia,Australia,
-32.0069,115.5022,Perth,Western Australia,Australia,
-32.2208,115.8075,Perth,Western Australia,Australia,
-29.9486,114.9781,Leeman,Western Australia,Australia,Shire Of Coorow
-31.8344,116.2197,Lesmurdie,Western Australia,Australia,
-32.0381,116.1264,Perth,Western Australia,Australia,
-32.0208,116.1167,Perth,Western Australia,Australia,
-30.8928,115.5789,Remote Southern Region,"Coordinates: -30.89°, 115.58°",Remote Area,
-30.2892,115.3203,Remote Southern Region,"Coordinates: -30.29°, 115.32°",Remote Area,
-31.9558,115.7619,Perth,Western Australia,Australia,
-32.0394,116.0656,Perth,Western Australia,Australia,
-31.9192,115.8728,Perth,Western Australia,Australia,
-32.0056,116.1364,Perth,Western Australia,Australia,
-32.3956,115.9744,Kwinana,Western Australia,Australia,
-30.9442,116.4989,Yerecoin,Western Australia,Australia,Shire Of Victoria Plains
-31.332,115.9513,Gingin,Western Australia,Australia,
-31.7683,116.2475,Bullsbrook,Western Australia,Australia,
-32.3906,115.8489,Kwinana,Western Australia,Australia,
-32.2433,115.6839,Kwinana,Western Australia,Australia,
-32.1569,115.9275,Perth,Western Australia,Australia,
-32.2156,115.8758,Perth,Western Australia,Australia,
-32.4697,116.2143,Remote Southern Region,"Coordinates: -32.47°, 116.21°",Remote Area,
-31.8372,115.95,Perth,Western Australia,Australia,
-31.7078,115.7242,Perth,Western Australia,Australia,
-30.5744,115.2231,Remote Southern Region,"Coordinates: -30.57°, 115.22°",Remote Area,
-35.0289,117.8808,Albany,Western Australia,Australia,
-33.8325,116.3894,Boyup Brook,Western Australia,Australia,Shire Of Boyup Brook
-33.7864,115.9814,Balingup,Western Australia,Australia,Shire Of Donnybrook-Balingup
-34.4678,116.9169,Rocky Gully,Western Australia,Australia,Shire Of Plantagenet
-32.6836,116.5194,Remote Southern Region,"Coordinates: -32.68°, 116.52°",Remote Area,
-32.8053,116.4711,Boddington,Western Australia,Australia,Shire Of Boddington
-33.2136,115.85,Australind,Western Australia,Australia,
-33.6611,115.3456,Busselton,Western Australia,Australia,
-34.3728,115.1358,Remote Southern Region,"Coordinates: -34.37°, 115.14°",Remote Area,
-33.5372,115.0189,Dunsborough,Western Australia,Australia,
-34.6086,118.7511,Wellstead,Western Australia,Australia,City Of Albany
-34.9728,117.2669,Remote Southern Region,"Coordinates: -34.97°, 117.27°",Remote Area,
-33.3969,115.7833,Bunbury,Western Australia,Australia,
-34.3772,116.4144,Manjimup,Western Australia,Australia,
-34.9617,117.3567,Denmark,Western Australia,Australia,Shire Of Denmark
-34.9528,117.3733,Remote Southern Region,"Coordinates: -34.95°, 117.37°",Remote Area,
-33.5719,115.8247,Donnybrook,Western Australia,Australia,Shire Of Donnybrook-Balingup
-32.7103,116.0594,Dwellingup,Western Australia,Australia,Shire of Murray
-33.6825,121.8275,Esperance,Western Australia,Australia,
-34.0717,115.0986,Margaret River,Western Australia,Australia,
-35.0151,117.7577,Albany,Western Australia,Australia,
-33.8564,116.0553,Greenbushes,Western Australia,Australia,Shire Of Bridgetown-Greenbushes
-33.9781,116.3336,Remote Southern Region,"Coordinates: -33.98°, 116.33°",Remote Area,
-34.9097,117.9942,Albany,Western Australia,Australia,
-34.4878,117.6278,Mount Barker,Western Australia,Australia,
-32.5031,115.7664,Mandurah,Western Australia,Australia,
-34.2508,116.145,Manjimup,Western Australia,Australia,
-33.9592,115.0642,Margaret River,Western Australia,Australia,
-32.8556,116.45,Boddington,Western Australia,Australia,Shire Of Boddington
-33.7633,122.0675,Esperance,Western Australia,Australia,
-34.625,117.6361,Mount Barker,Western Australia,Australia,
-33.7422,121.995,Esperance,Western Australia,Australia,
-33.9797,115.7656,Nannup,Western Australia,Australia,Shire Of Nannup
-33.9967,116.4253,Remote Southern Region,"Coordinates: -34.00°, 116.43°",Remote Area,
-34.9919,116.8206,Remote Southern Region,"Coordinates: -34.99°, 116.82°",Remote Area,
-34.6339,116.1236,Northcliffe,Western Australia,Australia,Shire Of Manjimup
-34.4478,116.0433,Manjimup,Western Australia,Australia,
-34.435,119.3628,Bremer Bay,Western Australia,Australia,Shire Of Jerramungup
-34.98,117.6322,Albany,Western Australia,Australia,
-33.9525,115.1969,Margaret River,Western Australia,Australia,
-33.6858,115.4008,Busselton,Western Australia,Australia,
-34.3667,117.55,Tenterden,Western Australia,Australia,Shire Of Cranbrook
-34.5475,117.9308,Mount Barker,Western Australia,Australia,
-35.0183,117.5289,Remote Southern Region,"Coordinates: -35.02°, 117.53°",Remote Area,
-34.9761,116.7328,Walpole,Western Australia,Australia,Shire Of Manjimup
-34.1436,115.2261,Margaret River,Western Australia,Australia,
-34.715,118.4692,Remote Southern Region,"Coordinates: -34.72°, 118.47°",Remote Area,
-34.0911,116.6628,Remote Southern Region,"Coordinates: -34.09°, 116.66°",Remote Area,
-33.9486,116.1311,Bridgetown,Western Australia,Australia,Shire Of Bridgetown-Greenbushes
-34.1519,116.2042,Manjimup,Western Australia,Australia,
-34.6997,117.9556,Mount Barker,Western Australia,Australia,
-34.7275,117.9222,Mount Barker,Western Australia,Australia,
-33.7106,121.5619,Remote Southern Region,"Coordinates: -33.71°, 121.56°",Remote Area,
-33.36,116.1467,Collie,Western Australia,Australia,
-33.4464,115.7308,Bunbury,Western Australia,Australia,
-33.6031,121.7828,Remote Southern Region,"Coordinates: -33.60°, 121.78°",Remote Area,
-34.8644,118.1122,Albany,Western Australia,Australia,
-34.3633,117.0836,Cranbrook,Western Australia,Australia,Shire Of Cranbrook
-33.8358,115.0747,Margaret River,Western Australia,Australia,
-33.1336,115.8808,Australind,Western Australia,Australia,
-33.7981,121.1503,Remote Southern Region,"Coordinates: -33.80°, 121.15°",Remote Area,
-34.9506,117.2769,Remote Southern Region,"Coordinates: -34.95°, 117.28°",Remote Area,
-33.5064,115.6403,Bunbury,Western Australia,Australia,
-34.3986,119.3778,Bremer Bay,Western Australia,Australia,Shire Of Jerramungup
-33.2964,115.7789,Bunbury,Western Australia,Australia,
-34.5097,117.0117,Rocky Gully,Western Australia,Australia,Shire Of Plantagenet
-33.5964,116.3347,Remote Southern Region,"Coordinates: -33.60°, 116.33°",Remote Area,
-33.6739,116.6475,Remote Southern Region,"Coordinates: -33.67°, 116.65°",Remote Area,
-33.6878,116.2147,Wilga,Western Australia,Australia,Shire Of Boyup Brook
-34.2511,116.8767,Remote Southern Region,"Coordinates: -34.25°, 116.88°",Remote Area,
-34.8772,117.6725,Albany,Western Australia,Australia,
-33.7622,116.5211,Remote Southern Region,"Coordinates: -33.76°, 116.52°",Remote Area,
-34.2258,115.7622,Remote Southern Region,"Coordinates: -34.23°, 115.76°",Remote Area,
-33.3,115.8,Bunbury,Western Australia,Australia,
-33.7039,115.8903,Kirup,Western Australia,Australia,Shire Of Donnybrook-Balingup
-33.8025,123.0331,Remote Southern Region,"Coordinates: -33.80°, 123.03°",Remote Area,
-33.6961,121.3656,Remote Southern Region,"Coordinates: -33.70°, 121.37°",Remote Area,
-33.4531,116.3025,Collie,Western Australia,Australia,
-33.6789,122.3311,Remote Southern Region,"Coordinates: -33.68°, 122.33°",Remote Area,
-34.9414,117.8022,Albany,Western Australia,Australia,
-33.6469,115.7031,Capel,Western Australia,Australia,Shire Of Capel
-34.0281,115.1042,Margaret River,Western Australia,Australia,
-34.7233,117.3494,Remote Southern Region,"Coordinates: -34.72°, 117.35°",Remote Area,
-34.5961,118.5519,Remote Southern Region,"Coordinates: -34.60°, 118.55°",Remote Area,
-35.0597,117.8658,Albany,Western Australia,Australia,
-32.5698,116.4385,Remote Southern Region,"Coordinates: -32.57°, 116.44°",Remote Area,
-33.7411,115.4697,Busselton,Western Australia,Australia,
-33.7608,121.2156,Remote Southern Region,"Coordinates: -33.76°, 121.22°",Remote Area,
-33.7931,115.3189,Busselton,Western Australia,Australia,
-34.9319,117.1606,Remote Southern Region,"Coordinates: -34.93°, 117.16°",Remote Area,
-33.83,121.8925,Esperance,Western Australia,Australia,
-34.1597,115.1892,Margaret River,Western Australia,Australia,
-33.6633,121.6306,Remote Southern Region,"Coordinates: -33.66°, 121.63°",Remote Area,
-33.7831,115.3447,Busselton,Western Australia,Australia,
-33.8811,122.2167,Esperance,Western Australia,Australia,
-34.9769,116.7286,Walpole,Western Australia,Australia,Shire Of Manjimup
-33.8819,122.5661,Condingup,Western Australia,Australia,Shire Of Esperance
-33.7753,121.555,Remote Southern Region,"Coordinates: -33.78°, 121.56°",Remote Area,
-33.7517,122.9128,Condingup,Western Australia,Australia,Shire Of Esperance
-33.8819,121.8597,Esperance,Western Australia,Australia,
-34.9267,117.8731,Albany,Western Australia,Australia,
-34.4033,118.9689,Bremer Bay,Western Australia,Australia,Shire Of Jerramungup
-33.7964,115.6658,Jarrahwood,Western Australia,Australia,City Of Busselton
-34.4417,116.9944,Rocky Gully,Western Australia,Australia,Shire Of Cranbrook
-34.7719,118.1317,Manypeaks,Western Australia,Australia,City Of Albany
-34.5378,117.7197,Mount Barker,Western Australia,Australia,
-34.9008,118.2019,Manypeaks,Western Australia,Australia,City Of Albany
-34.8883,118.3958,Remote Southern Region,"Coordinates: -34.89°, 118.40°",Remote Area,
-33.5083,116.7386,Darkan,Western Australia,Australia,Shire Of West Arthur
-34.3997,118.8867,Bremer Bay,Western Australia,Australia,Shire Of Jerramungup
-33.6511,122.0161,Esperance,Western Australia,Australia,
-33.7078,120.8653,Remote Southern Region,"Coordinates: -33.71°, 120.87°",Remote Area,
-33.9161,122.2083,Esperance,Western Australia,Australia,
-34.8361,116.0308,Remote Southern Region,"Coordinates: -34.84°, 116.03°",Remote Area,
-34.5692,117.6217,Mount Barker,Western Australia,Australia,
-33.6033,115.4983,Busselton,Western Australia,Australia,
-32.64,115.9461,Mandurah,Western Australia,Australia,
-32.9233,116.0081,Remote Southern Region,"Coordinates: -32.92°, 116.01°",Remote Area,
-32.9183,115.9217,Remote Southern Region,"Coordinates: -32.92°, 115.92°",Remote Area,
-33.8536,123.0069,Remote Southern Region,"Coordinates: -33.85°, 123.01°",Remote Area,
-34.8883,118.0789,Albany,Western Australia,Australia,
-34.5967,116.1072,Remote Southern Region,"Coordinates: -34.60°, 116.11°",Remote Area,
-34.1378,116.2333,Manjimup,Western Australia,Australia,
-34.2131,116.0231,Manjimup,Western Australia,Australia,
-34.2292,115.9294,Manjimup,Western Australia,Australia,
-33.7914,115.3189,Busselton,Western Australia,Australia,
-33.445,115.8508,Bunbury,Western Australia,Australia,
-33.6906,115.8439,Newlands,Western Australia,Australia,Shire Of Donnybrook-Balingup
-33.3197,116.6464,Darkan,Western Australia,Australia,Shire Of West Arthur
-33.7058,115.7878,Kirup,Western Australia,Australia,Shire Of Donnybrook-Balingup
-33.6492,121.1972,Remote Southern Region,"Coordinates: -33.65°, 121.20°",Remote Area,
-33.3169,115.9892,Collie,Western Australia,Australia,
-34.2489,116.4969,Remote Southern Region,"Coordinates: -34.25°, 116.50°",Remote Area,
-33.6028,116.0128,Collie,Western Australia,Australia,
-34.8389,116.7211,Remote Southern Region,"Coordinates: -34.84°, 116.72°",Remote Area,
-34.8794,118.0467,Albany,Western Australia,Australia,
-32.6239,116.0603,Remote Southern Region,"Coordinates: -32.62°, 116.06°",Remote Area,
-33.8097,122.0844,Esperance,Western Australia,Australia,
-35.0367,116.9247,Peaceful Bay,Western Australia,Australia,Shire Of Denmark
-34.6625,117.8394,Mount Barker,Western Australia,Australia,
-33.2028,116.2764,Collie,Western Australia,Australia,
-33.9306,120.1283,Hopetoun,Western Australia,Australia,Shire Of Ravensthorpe
-34.5714,117.0106,Rocky Gully,Western Australia,Australia,Shire Of Plantagenet
-33.3567,115.6447,Bunbury,Western Australia,Australia,
-34.7772,117.6508,Mount Barker,Western Australia,Australia,
-34.5683,116.3367,Remote Southern Region,"Coordinates: -34.57°, 116.34°",Remote Area,
-33.7844,115.4075,Busselton,Western Australia,Australia,
-34.8675,118.2156,Manypeaks,Western Australia,Australia,City Of Albany
-32.6453,115.8644,Mandurah,Western Australia,Australia,
-32.5219,115.7119,Mandurah,Western Australia,Australia,
-33.7563,115.2096,Busselton,Western Australia,Australia,
-34.4211,115.8519,Remote Southern Region,"Coordinates: -34.42°, 115.85°",Remote Area,
-33.3878,115.8538,Australind,Western Australia,Australia,
-34.8342,117.7919,Albany,Western Australia,Australia,
-33.6414,115.7028,Remote Southern Region,"Coordinates: -33.64°, 115.70°",Remote Area,
-33.6808,115.6242,Busselton,Western Australia,Australia,
-33.6458,115.9553,Remote Southern Region,"Coordinates: -33.65°, 115.96°",Remote Area,
-33.4775,115.7393,Bunbury,Western Australia,Australia,
-33.5711,115.8383,Donnybrook,Western Australia,Australia,Shire Of Donnybrook-Balingup
-33.5435,115.5509,Bunbury,Western Australia,Australia,
-33.3608,116.1717,Collie,Western Australia,Australia,
-33.7647,115.8431,Remote Southern Region,"Coordinates: -33.76°, 115.84°",Remote Area,
-34.9469,116.7222,Walpole,Western Australia,Australia,Shire Of Manjimup
-31.1675,117.0736,Dowerin,Western Australia,Australia,Shire Of Dowerin
-31.3667,117.9031,Remote Southern Region,"Coordinates: -31.37°, 117.90°",Remote Area,
-31.7278,118.1108,Bruce Rock,Western Australia,Australia,Shire Of Bruce Rock
-30.8081,117.8603,Bencubbin,Western Australia,Australia,Shire Of Mount Marshall
-31.2744,116.5092,Bolgart,Western Australia,Australia,Shire Of Victoria Plains
-30.4731,118.3819,Remote Southern Region,"Coordinates: -30.47°, 118.38°",Remote Area,
-31.5278,117.4361,Remote Southern Region,"Coordinates: -31.53°, 117.44°",Remote Area,
-31.8775,118.15,Bruce Rock,Western Australia,Australia,Shire Of Bruce Rock
-31.3958,118.4808,Merredin,Western Australia,Australia,
-30.2008,117.9389,Remote Southern Region,"Coordinates: -30.20°, 117.94°",Remote Area,
-31.5003,116.9411,Remote Southern Region,"Coordinates: -31.50°, 116.94°",Remote Area,
-30.0606,117.1417,Remote Southern Region,"Coordinates: -30.06°, 117.14°",Remote Area,
-30.7767,118.1992,Remote Southern Region,"Coordinates: -30.78°, 118.20°",Remote Area,
-31.3742,117.5861,Remote Southern Region,"Coordinates: -31.37°, 117.59°",Remote Area,
-30.9964,117.3953,Remote Southern Region,"Coordinates: -31.00°, 117.40°",Remote Area,
-31.7272,118.2931,Merredin,Western Australia,Australia,
-31.7903,117.3283,Cunderdin,Western Australia,Australia,Shire Of Cunderdin
-31.0072,117.2042,Remote Southern Region,"Coordinates: -31.01°, 117.20°",Remote Area,
-31.6089,117.8775,Doodlakine,Western Australia,Australia,Shire Of Kellerberrin
-31.6192,117.4372,Remote Southern Region,"Coordinates: -31.62°, 117.44°",Remote Area,
-31.1936,117.0311,Dowerin,Western Australia,Australia,Shire Of Dowerin
-31.7661,116.9167,Northam,Western Australia,Australia,
-31.6231,117.5431,Remote Southern Region,"Coordinates: -31.62°, 117.54°",Remote Area,
-31.0097,117.1344,Remote Southern Region,"Coordinates: -31.01°, 117.13°",Remote Area,
-31.4453,117.2219,Cunderdin,Western Australia,Australia,Shire Of Cunderdin
-31.7233,118.4372,Remote Southern Region,"Coordinates: -31.72°, 118.44°",Remote Area,
-30.7997,117.6806,Gabbin,Western Australia,Australia,Shire Of Mount Marshall
-31.2994,116.8269,Goomalling,Western Australia,Australia,Shire Of Goomalling
-31.9886,118.5106,Remote Southern Region,"Coordinates: -31.99°, 118.51°",Remote Area,
-31.1417,116.9558,Dowerin,Western Australia,Australia,Shire Of Dowerin
-31.2747,116.5075,Bolgart,Western Australia,Australia,Shire Of Victoria Plains
-29.5858,116.9622,Pacific Ocean,"Coordinates: -29.59°, 116.96°",Remote Area,
-30.3686,117.1133,Kalannie,Western Australia,Australia,Shire Of Dalwallinu
-31.6183,117.7217,Kellerberrin,Western Australia,Australia,Shire Of Kellerberrin
-29.6089,117.41,Pacific Ocean,"Coordinates: -29.61°, 117.41°",Remote Area,
-31.0597,116.7319,Remote Southern Region,"Coordinates: -31.06°, 116.73°",Remote Area,
-30.825,117.4825,Koorda,Western Australia,Australia,Shire Of Koorda
-31.1125,117.9186,Kununoppin,Western Australia,Australia,Shire Of Trayning
-31.3725,118.1961,Merredin,Western Australia,Australia,
-30.1056,117.3597,Remote Southern Region,"Coordinates: -30.11°, 117.36°",Remote Area,
-31.6322,117.0081,Meckering,Western Australia,Australia,Shire Of Cunderdin
-31.4756,118.2789,Merredin,Western Australia,Australia,
-31.5936,118.2347,Merredin,Western Australia,Australia,
-30.6569,117.2625,Remote Southern Region,"Coordinates: -30.66°, 117.26°",Remote Area,
-30.9153,118.2028,Mukinbudin,Western Australia,Australia,Shire Of Mukinbudin
-31.4025,117.7239,Remote Southern Region,"Coordinates: -31.40°, 117.72°",Remote Area,
-31.3261,118.2464,Merredin,Western Australia,Australia,
-31.6508,116.6586,Northam,Western Australia,Australia,
-31.1842,118.1006,Nungarin,Western Australia,Australia,Shire Of Nungarin
-31.7714,116.8647,Northam,Western Australia,Australia,
-31.5397,117.4781,Tammin,Western Australia,Australia,Shire Of Tammin
-31.9917,118.0264,Ardath,Western Australia,Australia,Shire Of Bruce Rock
-31.795,118.3947,Narembeen,Western Australia,Australia,Shire Of Narembeen
-31.9091,117.0986,Remote Southern Region,"Coordinates: -31.91°, 117.10°",Remote Area,
-31.6431,117.4872,Tammin,Western Australia,Australia,Shire Of Tammin
-31.8308,117.4875,Remote Southern Region,"Coordinates: -31.83°, 117.49°",Remote Area,
-31.9925,117.9325,Shackleton,Western Australia,Australia,Shire Of Bruce Rock
-31.5136,118.1753,Merredin,Western Australia,Australia,
-31.5453,116.4594,Northam,Western Australia,Australia,
-31.1153,117.7942,Trayning,Western Australia,Australia,Shire Of Trayning
-31.3119,116.515,Bejoording,Western Australia,Australia,Shire Of Toodyay
-30.4869,118.1258,Remote Southern Region,"Coordinates: -30.49°, 118.13°",Remote Area,
-30.5892,118.1489,Remote Southern Region,"Coordinates: -30.59°, 118.15°",Remote Area,
-30.3294,118.0872,Beacon,Western Australia,Australia,Shire Of Mount Marshall
-31.814,116.341,Wooroloo,Western Australia,Australia,Shire of Mundaring
-31.1806,117.3797,Wyalkatchem,Western Australia,Australia,Shire Of Wyalkatchem
-30.2897,117.0108,Dalwallinu,Western Australia,Australia,Shire Of Dalwallinu
-31.415,117.2664,Remote Southern Region,"Coordinates: -31.41°, 117.27°",Remote Area,
-31.3756,117.5853,Remote Southern Region,"Coordinates: -31.38°, 117.59°",Remote Area,
-31.3361,117.8164,Remote Southern Region,"Coordinates: -31.34°, 117.82°",Remote Area,
-31.6358,116.7961,Northam,Western Australia,Australia,
-31.5317,118.0986,Merredin,Western Australia,Australia,
-31.75,116.6833,Northam,Western Australia,Australia,
-30.7686,117.1361,Cadoux,Western Australia,Australia,Shire Of Wongan-Ballidu
-31.0908,116.4483,Calingiri,Western Australia,Australia,Shire Of Victoria Plains
-30.4072,118.2797,Remote Southern Region,"Coordinates: -30.41°, 118.28°",Remote Area,
-31.4533,117.1194,Remote Southern Region,"Coordinates: -31.45°, 117.12°",Remote Area,
-31.7711,117.1433,Remote Southern Region,"Coordinates: -31.77°, 117.14°",Remote Area,
-30.5539,118.2828,Remote Southern Region,"Coordinates: -30.55°, 118.28°",Remote Area,
-29.2392,116.7122,Pacific Ocean,"Coordinates: -29.24°, 116.71°",Remote Area,
-31.65,117.1,Meckering,Western Australia,Australia,Shire Of Cunderdin
-31.7603,116.4781,Northam,Western Australia,Australia,
-31.135,116.9242,Dowerin,Western Australia,Australia,Shire Of Goomalling
-31.5094,117.7681,Doodlakine,Western Australia,Australia,Shire Of Kellerberrin
-30.1547,117.8214,Remote Southern Region,"Coordinates: -30.15°, 117.82°",Remote Area,
-31.9339,117.835,Shackleton,Western Australia,Australia,Shire Of Bruce Rock
-31.6219,117.2217,Cunderdin,Western Australia,Australia,Shire Of Cunderdin
-31.5736,117.5097,Remote Southern Region,"Coordinates: -31.57°, 117.51°",Remote Area,
-31.9067,117.2336,Remote Southern Region,"Coordinates: -31.91°, 117.23°",Remote Area,
-31.5594,118.5819,Merredin,Western Australia,Australia,
-31.485,116.5383,Northam,Western Australia,Australia,
-30.7261,118.4219,Remote Southern Region,"Coordinates: -30.73°, 118.42°",Remote Area,
-31.7936,116.6278,Northam,Western Australia,Australia,
-31.55,116.4867,Northam,Western Australia,Australia,
-31.7647,116.3464,Wundowie,Western Australia,Australia,Shire Of Northam
-31.8997,116.765,Northam,Western Australia,Australia,
-34.2553,118.2214,Amelup,Western Australia,Australia,Shire Of Gnowangerup
-32.0311,118.0947,Ardath,Western Australia,Australia,Shire Of Bruce Rock
-34.0811,117.5181,Remote Southern Region,"Coordinates: -34.08°, 117.52°",Remote Area,
-33.3392,117.035,Wagin,Western Australia,Australia,
-34.1464,117.3961,Cranbrook,Western Australia,Australia,Shire Of Cranbrook
-33.6361,117.9278,Nyabing,Western Australia,Australia,Shire Of Katanning
-33.1642,116.7992,Williams,Western Australia,Australia,Shire Of Williams
-32.8022,117.5025,Wickepin,Western Australia,Australia,Shire Of Wickepin
-32.3869,118.2622,Kondinin,Western Australia,Australia,Shire Of Kondinin
-32.1083,116.9247,Beverley,Western Australia,Australia,Shire Of Beverley
-32.4006,118.6058,Karlgarin,Western Australia,Australia,Shire Of Kondinin
-34.0717,118.2628,Remote Southern Region,"Coordinates: -34.07°, 118.26°",Remote Area,
-33.6614,117.0539,Remote Southern Region,"Coordinates: -33.66°, 117.05°",Remote Area,
-32.3725,117.0072,Brookton,Western Australia,Australia,Shire Of Brookton
-33.8461,117.6386,Katanning,Western Australia,Australia,
-32.3756,117.5128,Remote Southern Region,"Coordinates: -32.38°, 117.51°",Remote Area,
-33.9144,117.0994,Remote Southern Region,"Coordinates: -33.91°, 117.10°",Remote Area,
-33.7069,117.2411,Katanning,Western Australia,Australia,
-32.4825,117.5647,Remote Southern Region,"Coordinates: -32.48°, 117.56°",Remote Area,
-32.3292,117.8733,Corrigin,Western Australia,Australia,Shire Of Corrigin
-34.2961,117.5533,Cranbrook,Western Australia,Australia,Shire Of Cranbrook
-32.8183,117.18,Narrogin,Western Australia,Australia,
-33.8594,118.8158,Remote Southern Region,"Coordinates: -33.86°, 118.82°",Remote Area,
-33.3347,116.7425,Darkan,Western Australia,Australia,Shire Of West Arthur
-33.3956,117.0944,Wagin,Western Australia,Australia,
-33.3142,117.74,Dumbleyung,Western Australia,Australia,Shire Of Dumbleyung
-33.5167,116.8028,Bowelling,Western Australia,Australia,Shire Of West Arthur
-33.2658,118.4861,Remote Southern Region,"Coordinates: -33.27°, 118.49°",Remote Area,
-32.4797,116.8167,Remote Southern Region,"Coordinates: -32.48°, 116.82°",Remote Area,
-33.9372,118.0075,Gnowangerup,Western Australia,Australia,Shire Of Gnowangerup
-32.5403,119.1122,Hyden,Western Australia,Australia,Shire Of Kondinin
-32.3472,116.8553,Brookton,Western Australia,Australia,Shire Of Brookton
-32.6744,119.4144,Hyden,Western Australia,Australia,Shire Of Kulin
-33.5714,117.2111,Remote Southern Region,"Coordinates: -33.57°, 117.21°",Remote Area,
-32.4419,118.8983,Hyden,Western Australia,Australia,Shire Of Kondinin
-32.3789,116.8258,Remote Southern Region,"Coordinates: -32.38°, 116.83°",Remote Area,
-32.2894,119.1358,Hyden,Western Australia,Australia,Shire Of Kondinin
-33.83,117.159,Kojonup,Western Australia,Australia,Shire Of Kojonup
-32.4947,118.2675,Kondinin,Western Australia,Australia,Shire Of Kondinin
-32.6719,118.1547,Kulin,Western Australia,Australia,Shire Of Kulin
-33.61,117.9878,Nyabing,Western Australia,Australia,Shire Of Katanning
-33.6514,118.5517,Pingrup,Western Australia,Australia,
-33.4117,118.5111,Pingrup,Western Australia,Australia,Shire Of Lake Grace
-33.1975,116.9106,Williams,Western Australia,Australia,Shire Of Williams
-33.6067,118.4292,Pingrup,Western Australia,Australia,
-32.4231,118.2003,Kondinin,Western Australia,Australia,Shire Of Kondinin
-32.9267,119.5775,Remote Southern Region,"Coordinates: -32.93°, 119.58°",Remote Area,
-33.2761,119.7753,Remote Southern Region,"Coordinates: -33.28°, 119.78°",Remote Area,
-32.0656,118.3956,Narembeen,Western Australia,Australia,Shire Of Narembeen
-32.9342,117.1797,Narrogin,Western Australia,Australia,
-33.0939,119.0236,Newdegate,Western Australia,Australia,Shire Of Lake Grace
-33.5417,118.1489,Nyabing,Western Australia,Australia,
-32.3044,116.6358,Remote Southern Region,"Coordinates: -32.30°, 116.64°",Remote Area,
-33.9644,118.4889,Ongerup,Western Australia,Australia,Shire Of Gnowangerup
-32.5336,117.0831,Pingelly,Western Australia,Australia,Shire Of Pingelly
-33.5347,118.5092,Pingrup,Western Australia,Australia,
-32.0094,117.4014,Quairading,Western Australia,Australia,Shire Of Quairading
-33.5803,120.0458,Ravensthorpe,Western Australia,Australia,
-32.3108,116.7675,Remote Southern Region,"Coordinates: -32.31°, 116.77°",Remote Area,
-33.7853,116.9064,Muradup,Western Australia,Australia,Shire Of Kojonup
-32.5228,118.3047,Kondinin,Western Australia,Australia,Shire Of Kondinin
-33.375,116.9053,Darkan,Western Australia,Australia,Shire Of West Arthur
-34.0444,117.6419,Tambellup,Western Australia,Australia,Shire Of Broomehill-Tambellup
-33.1256,118.1961,Remote Southern Region,"Coordinates: -33.13°, 118.20°",Remote Area,
-33.3075,117.3403,Wagin,Western Australia,Australia,
-32.7822,117.4992,Wickepin,Western Australia,Australia,Shire Of Wickepin
-33.0269,116.8792,Narrogin,Western Australia,Australia,
-33.3556,117.9161,Remote Southern Region,"Coordinates: -33.36°, 117.92°",Remote Area,
-32.8331,116.9911,Narrogin,Western Australia,Australia,
-33.5636,117.4336,Katanning,Western Australia,Australia,
-32.5931,117.6258,Yealering,Western Australia,Australia,Shire Of Wickepin
-32.9006,117.3986,Narrogin,Western Australia,Australia,
-33.1886,118.0836,Kukerin,Western Australia,Australia,Shire Of Dumbleyung
-32.0394,118.9022,Remote Southern Region,"Coordinates: -32.04°, 118.90°",Remote Area,
-32.4436,119.3442,Hyden,Western Australia,Australia,Shire Of Kondinin
-33.1361,117.8814,Remote Southern Region,"Coordinates: -33.14°, 117.88°",Remote Area,
-33.0964,117.4047,Narrogin,Western Australia,Australia,
-33.1131,118.84,Remote Southern Region,"Coordinates: -33.11°, 118.84°",Remote Area,
-33.9956,117.9164,Remote Southern Region,"Coordinates: -34.00°, 117.92°",Remote Area,
-32.6597,118.6319,Remote Southern Region,"Coordinates: -32.66°, 118.63°",Remote Area,
-33.7136,118.1894,Nyabing,Western Australia,Australia,
-33.4972,117.3131,Wagin,Western Australia,Australia,
-32.1003,118.8058,Remote Southern Region,"Coordinates: -32.10°, 118.81°",Remote Area,
-33.3281,117.5628,Wagin,Western Australia,Australia,
-32.3344,118.8492,Hyden,Western Australia,Australia,Shire Of Kondinin
-33.9411,118.92,Jerramungup,Western Australia,Australia,Shire Of Jerramungup
-34.2208,117.9811,Amelup,Western Australia,Australia,Shire Of Broomehill-Tambellup
-34.2,117.8,Remote Southern Region,"Coordinates: -34.20°, 117.80°",Remote Area,
-33.4458,117.6614,Katanning,Western Australia,Australia,
-34.3439,118.6306,Remote Southern Region,"Coordinates: -34.34°, 118.63°",Remote Area,
-34.0042,118.0536,Remote Southern Region,"Coordinates: -34.00°, 118.05°",Remote Area,
-34.4019,118.1019,Remote Southern Region,"Coordinates: -34.40°, 118.10°",Remote Area,
-34.1692,118.9444,Remote Southern Region,"Coordinates: -34.17°, 118.94°",Remote Area,
-33.2114,116.9919,Williams,Western Australia,Australia,Shire Of West Arthur
-32.1178,116.8678,Beverley,Western Australia,Australia,Shire Of Beverley
-34.2514,117.9119,Cranbrook,Western Australia,Australia,Shire Of Broomehill-Tambellup
-32.6339,118.0103,Remote Southern Region,"Coordinates: -32.63°, 118.01°",Remote Area,
-33.4661,118.6361,Pingrup,Western Australia,Australia,
-33.0114,118.2389,Remote Southern Region,"Coordinates: -33.01°, 118.24°",Remote Area,
-32.1842,117.9675,Remote Southern Region,"Coordinates: -32.18°, 117.97°",Remote Area,
-33.1806,120.0883,Ravensthorpe,Western Australia,Australia,Shire Of Ravensthorpe
-33.2064,117.6994,Remote Southern Region,"Coordinates: -33.21°, 117.70°",Remote Area,
-32.2344,117.6444,Remote Southern Region,"Coordinates: -32.23°, 117.64°",Remote Area,
-33.4836,117.61,Katanning,Western Australia,Australia,
-32.8192,119.2936,Remote Southern Region,"Coordinates: -32.82°, 119.29°",Remote Area,
-33.9317,117.3258,Remote Southern Region,"Coordinates: -33.93°, 117.33°",Remote Area,
-33.5942,120.1833,Ravensthorpe,Western Australia,Australia,
-33.6914,119.6608,Remote Southern Region,"Coordinates: -33.69°, 119.66°",Remote Area,
-33.1722,118.2475,Remote Southern Region,"Coordinates: -33.17°, 118.25°",Remote Area,
-33.9036,117.175,Kojonup,Western Australia,Australia,Shire Of Kojonup
-32.7353,116.8381,Remote Southern Region,"Coordinates: -32.74°, 116.84°",Remote Area,
-33.5381,119.6564,Remote Southern Region,"Coordinates: -33.54°, 119.66°",Remote Area,
-32.1336,119.0261,Remote Southern Region,"Coordinates: -32.13°, 119.03°",Remote Area,
-32.8125,116.6931,Williams,Western Australia,Australia,Shire Of Williams
-32.885,118.6347,Remote Southern Region,"Coordinates: -32.88°, 118.63°",Remote Area,
-34.3078,117.4347,Cranbrook,Western Australia,Australia,Shire Of Cranbrook
-32.6322,119.0958,Hyden,Western Australia,Australia,Shire Of Kulin
-33.3994,119.9344,Ravensthorpe,Western Australia,Australia,
-33.4331,120.1178,Ravensthorpe,Western Australia,Australia,
-34.2206,118.5042,Remote Southern Region,"Coordinates: -34.22°, 118.50°",Remote Area,
-32.9297,119.8367,Lake King,Western Australia,Australia,Shire Of Lake Grace
-33.8731,118.2003,Remote Southern Region,"Coordinates: -33.87°, 118.20°",Remote Area,
-32.1717,118.6136,Remote Southern Region,"Coordinates: -32.17°, 118.61°",Remote Area,
-33.8878,119.1092,Jerramungup,Western Australia,Australia,Shire Of Jerramungup
-32.0294,116.8742,Beverley,Western Australia,Australia,Shire Of Beverley
-32.6764,117.2708,Narrogin,Western Australia,Australia,
-33.1006,118.4647,Lake Grace,Western Australia,Australia,Shire Of Lake Grace
-32.5878,117.6408,Remote Southern Region,"Coordinates: -32.59°, 117.64°",Remote Area,
-33.6856,117.6064,Katanning,Western Australia,Australia,
-32.6722,116.6706,Wandering,Western Australia,Australia,Shire Of Wandering
-31.6797,128.8792,Remote Southern Region,"Coordinates: -31.68°, 128.88°",Remote Area,
-31.8433,127.8572,Remote Southern Region,"Coordinates: -31.84°, 127.86°",Remote Area,
-32.4569,123.8653,Remote Southern Region,"Coordinates: -32.46°, 123.87°",Remote Area,
-32.2464,126.3008,Cocklebiddy,Western Australia,Australia,Shire Of Dundas
-31.7117,128.8867,Old Eucla,Western Australia,Australia,Shire Of Dundas
-31.7219,126.5889,Cocklebiddy,Western Australia,Australia,Shire Of Dundas
-31.8097,125.9267,Cocklebiddy,Western Australia,Australia,Shire Of Dundas
-31.0417,125.2164,Rawlinna,Western Australia,Australia,City Of Kalgoorlie-Boulder
-31.3497,125.2231,Rawlinna,Western Australia,Australia,City Of Kalgoorlie-Boulder
-31.5803,125.2019,Remote Southern Region,"Coordinates: -31.58°, 125.20°",Remote Area,
-31.9178,125.3008,Remote Southern Region,"Coordinates: -31.92°, 125.30°",Remote Area,
-31.6436,124.935,Remote Southern Region,"Coordinates: -31.64°, 124.94°",Remote Area,
-31.1956,124.8481,Rawlinna,Western Australia,Australia,City Of Kalgoorlie-Boulder
-30.7428,125.2936,Rawlinna,Western Australia,Australia,City Of Kalgoorlie-Boulder
-32.1761,125.3953,Remote Southern Region,"Coordinates: -32.18°, 125.40°",Remote Area,
-31.0239,126.5842,Rawlinna,Western Australia,Australia,City Of Kalgoorlie-Boulder
-33.2986,123.0658,Remote Southern Region,"Coordinates: -33.30°, 123.07°",Remote Area,
-30.8453,128.1092,Remote Southern Region,"Coordinates: -30.85°, 128.11°",Remote Area,
-32.2028,127.5297,Remote Southern Region,"Coordinates: -32.20°, 127.53°",Remote Area,
-31.0603,118.8367,Remote Southern Region,"Coordinates: -31.06°, 118.84°",Remote Area,
-32.2147,121.7547,Norseman,Western Australia,Australia,
-30.9869,119.1142,Bullfinch,Western Australia,Australia,Shire Of Yilgarn
-30.7503,121.7519,Kalgoorlie,Western Australia,Australia,
-30.9542,121.1656,Coolgardie,Western Australia,Australia,Shire Of Coolgardie
-27.9331,120.0575,Sandstone,Western Australia,Australia,Shire Of Sandstone
-31.6419,118.9019,Remote Southern Region,"Coordinates: -31.64°, 118.90°",Remote Area,
-29.8119,122.3547,Pacific Ocean,"Coordinates: -29.81°, 122.35°",Remote Area,
-33.0372,121.6644,Salmon Gums,Western Australia,Australia,Shire Of Esperance
-32.0339,122.8017,Remote Southern Region,"Coordinates: -32.03°, 122.80°",Remote Area,
-30.7847,121.4533,Kalgoorlie,Western Australia,Australia,
-29.3361,121.4944,Pacific Ocean,"Coordinates: -29.34°, 121.49°",Remote Area,
-33.5547,120.6997,Remote Southern Region,"Coordinates: -33.55°, 120.70°",Remote Area,
-28.6306,122.4072,Laverton,Western Australia,Australia,
-28.8836,121.3303,Leonora,Western Australia,Australia,
-29.6939,121.0297,Menzies,Western Australia,Australia,Shire Of Menzies
-31.4161,119.0467,Moorine Rock,Western Australia,Australia,Shire Of Yilgarn
-31.5939,119.1419,Remote Southern Region,"Coordinates: -31.59°, 119.14°",Remote Area,
-31.3356,118.98,Remote Southern Region,"Coordinates: -31.34°, 118.98°",Remote Area,
-30.3764,121.0633,Remote Southern Region,"Coordinates: -30.38°, 121.06°",Remote Area,
-32.9869,121.6239,Salmon Gums,Western Australia,Australia,Shire Of Esperance
-27.9875,119.2961,Sandstone,Western Australia,Australia,Shire Of Sandstone
-33.5172,121.75,Remote Southern Region,"Coordinates: -33.52°, 121.75°",Remote Area,
-32.8606,121.7081,Salmon Gums,Western Australia,Australia,Shire Of Esperance
-31.0381,119.3064,Southern Cross,Western Australia,Australia,
-31.3011,118.6922,Westonia,Western Australia,Australia,Shire Of Westonia
-27.575,120.5319,Pacific Ocean,"Coordinates: -27.57°, 120.53°",Remote Area,
-27.2842,120.0931,Wiluna,Western Australia,Australia,Shire Of Wiluna
-28.5606,119.0161,Sandstone,Western Australia,Australia,Shire Of Sandstone
-29.2472,122.1022,Leonora,Western Australia,Australia,Shire Of Leonora
-31.3211,118.5475,Remote Southern Region,"Coordinates: -31.32°, 118.55°",Remote Area,
-33.4225,121.9894,Remote Southern Region,"Coordinates: -33.42°, 121.99°",Remote Area,
-33.6839,120.6958,Remote Southern Region,"Coordinates: -33.68°, 120.70°",Remote Area,
-31.2186,121.6181,Kambalda West,Western Australia,Australia,Shire Of Coolgardie
-33.3619,121.0614,Remote Southern Region,"Coordinates: -33.36°, 121.06°",Remote Area,
-30.0242,119.28,Remote Southern Region,"Coordinates: -30.02°, 119.28°",Remote Area,
-31.2617,120.0219,Remote Southern Region,"Coordinates: -31.26°, 120.02°",Remote Area,
-28.6781,120.9706,Leonora,Western Australia,Australia,Shire Of Leonora
-30.8958,124.8658,Rawlinna,Western Australia,Australia,City Of Kalgoorlie-Boulder
-33.3844,121.4494,Grass Patch,Western Australia,Australia,Shire Of Esperance
-31.7036,119.2378,Remote Southern Region,"Coordinates: -31.70°, 119.24°",Remote Area,
-31.0089,122.3567,Remote Southern Region,"Coordinates: -31.01°, 122.36°",Remote Area,
-33.2242,121.3544,Remote Southern Region,"Coordinates: -33.22°, 121.35°",Remote Area,
-30.8183,119.5197,Koolyanobbing,Western Australia,Australia,Shire Of Yilgarn
-28.4967,119.7436,Sandstone,Western Australia,Australia,Shire Of Sandstone
-28.3514,127.5169,Pacific Ocean,"Coordinates: -28.35°, 127.52°",Remote Area,
-28.8789,121.3186,Leonora,Western Australia,Australia,
-30.2817,121.7606,Remote Southern Region,"Coordinates: -30.28°, 121.76°",Remote Area,
-33.0603,121.7842,Salmon Gums,Western Australia,Australia,Shire Of Esperance
-27.7036,121.6131,Pacific Ocean,"Coordinates: -27.70°, 121.61°",Remote Area,
-28.7175,121.1506,Leonora,Western Australia,Australia,
-33.4578,120.915,Remote Southern Region,"Coordinates: -33.46°, 120.92°",Remote Area,
-31.1003,118.6019,Remote Southern Region,"Coordinates: -31.10°, 118.60°",Remote Area,
-33.4853,122.5867,Remote Southern Region,"Coordinates: -33.49°, 122.59°",Remote Area,
-31.7575,119.4522,Remote Southern Region,"Coordinates: -31.76°, 119.45°",Remote Area,
-28.6133,122.4236,Laverton,Western Australia,Australia,
-33.5239,122.9469,Remote Southern Region,"Coordinates: -33.52°, 122.95°",Remote Area,
-33.3356,122.0697,Remote Southern Region,"Coordinates: -33.34°, 122.07°",Remote Area,
-33.4656,122.3972,Remote Southern Region,"Coordinates: -33.47°, 122.40°",Remote Area,
-33.5906,122.4519,Condingup,Western Australia,Australia,Shire Of Esperance
-27.8386,120.7031,Leinster,Western Australia,Australia,Shire Of Leonora
-29.3494,120.4006,Pacific Ocean,"Coordinates: -29.35°, 120.40°",Remote Area,
-31.2353,119.3564,Southern Cross,Western Australia,Australia,
-25.2661,122.0433,Pacific Ocean,"Coordinates: -25.27°, 122.04°",Remote Area,
-26.2225,121.5561,Wiluna,Western Australia,Australia,Shire Of Wiluna
-26.4006,120.9539,Wiluna,Western Australia,Australia,Shire Of Wiluna
-20.1417,127.9867,Balgo,Western Australia,Australia,Shire of Halls Creek
-26.1317,126.5839,Warburton,Western Australia,Australia,Shire Of Ngaanyatjarraku
-26.5914,120.225,Wiluna,Western Australia,Australia,Shire Of Wiluna
-25.7964,122.9753,Pacific Ocean,"Coordinates: -25.80°, 122.98°",Remote Area,
-25.0341,128.301,Warakurna,Western Australia,Australia,Shire Of Ngaanyatjarraku
-26.1208,121.9403,Pacific Ocean,"Coordinates: -26.12°, 121.94°",Remote Area,
-26.5172,122.8078,Pacific Ocean,"Coordinates: -26.52°, 122.81°",Remote Area,
-21.7125,122.2281,Pacific Ocean,"Coordinates: -21.71°, 122.23°",Remote Area,
-25.6361,121.3533,Wiluna,Western Australia,Australia,Shire Of Wiluna
-27.0336,122.4439,Pacific Ocean,"Coordinates: -27.03°, 122.44°",Remote Area,
-25.7069,120.3478,Wiluna,Western Australia,Australia,Shire Of Wiluna
-26.5994,120.3417,Wiluna,Western Australia,Australia,Shire Of Wiluna
-27.1542,124.5747,Pacific Ocean,"Coordinates: -27.15°, 124.57°",Remote Area,
-12.5547,130.8677,Darwin,Northern Territory,Australia,
-12.81,130.4576,Pacific Ocean,"Coordinates: -12.81°, 130.46°",Remote Area,
-12.4239,130.8925,Darwin,Northern Territory,Australia,
-12.3889,131.1767,Howard Springs,Northern Territory,Australia,
-12.4227,130.8844,Darwin,Northern Territory,Australia,
-12.605,131.2988,Howard Springs,Northern Territory,Australia,
-12.2248,131.0923,Howard Springs,Northern Territory,Australia,
-12.4706,130.8455,Darwin,Northern Territory,Australia,
-13.481,131.1173,Adelaide River,Northern Territory,Australia,
-14.0829,131.8099,Pine Creek,Northern Territory,Australia,
-14.1435,132.1925,Pacific Ocean,"Coordinates: -14.14°, 132.19°",Remote Area,
-12.49,130.9881,Darwin,Northern Territory,Australia,
-12.6495,131.3181,Pacific Ocean,"Coordinates: -12.65°, 131.32°",Remote Area,
-12.5781,131.3145,Howard Springs,Northern Territory,Australia,
-13.2373,131.1042,Adelaide River,Northern Territory,Australia,
-12.3786,130.8469,Darwin,Northern Territory,Australia,
-12.4428,130.9556,Darwin,Northern Territory,Australia,
-11.4022,130.4217,Pirlangimpi,,Australia,Tiwi Islands Region
-12.8003,131.0507,McMinns Lagoon,Northern Territory,Australia,
-12.3962,130.8785,Darwin,Northern Territory,Australia,
-12.5777,131.2535,Howard Springs,Northern Territory,Australia,
-12.4558,131.0505,Darwin,Northern Territory,Australia,
-11.1538,132.143,Pacific Ocean,"Coordinates: -11.15°, 132.14°",Remote Area,
-12.5723,131.1006,Howard Springs,Northern Territory,Australia,
-12.4396,130.8376,Darwin,Northern Territory,Australia,
-12.4648,130.8495,Darwin,Northern Territory,Australia,
-13.3787,131.5047,Pacific Ocean,"Coordinates: -13.38°, 131.50°",Remote Area,
-12.8324,130.9713,Tumbling Waters,Litchfield Municipality,Australia,
-12.6594,132.8939,Pacific Ocean,"Coordinates: -12.66°, 132.89°",Remote Area,
-13.7578,131.574,Pine Creek,Northern Territory,Australia,
-12.7271,130.9475,Howard Springs,Northern Territory,Australia,
-12.4721,130.9924,Darwin,Northern Territory,Australia,
-12.6997,131.0,McMinns Lagoon,Northern Territory,Australia,
-12.5491,131.0794,Darwin,Northern Territory,Australia,
-12.6374,131.0763,Howard Springs,Northern Territory,Australia,
-13.8062,132.197,Pacific Ocean,"Coordinates: -13.81°, 132.20°",Remote Area,
-12.5764,131.0829,Darwin,Northern Territory,Australia,
-12.3887,130.9248,Darwin,Northern Territory,Australia,
-12.4019,130.8961,Darwin,Northern Territory,Australia,
-12.4346,130.7491,Darwin,Northern Territory,Australia,
-13.1129,130.4937,Pacific Ocean,"Coordinates: -13.11°, 130.49°",Remote Area,
-12.3784,130.9057,Darwin,Northern Territory,Australia,
-13.5548,132.2731,Pacific Ocean,"Coordinates: -13.55°, 132.27°",Remote Area,
-12.6759,132.4803,Pacific Ocean,"Coordinates: -12.68°, 132.48°",Remote Area,
-13.1672,130.1225,Channel Point Community,,Australia,
-12.2435,131.8785,Pacific Ocean,"Coordinates: -12.24°, 131.88°",Remote Area,
-12.9038,132.5255,Pacific Ocean,"Coordinates: -12.90°, 132.53°",Remote Area,
-12.3602,130.9829,Darwin,Northern Territory,Australia,
-12.5858,131.7609,Pacific Ocean,"Coordinates: -12.59°, 131.76°",Remote Area,
-12.7121,130.9889,Howard Springs,Northern Territory,Australia,
-12.4126,130.9202,Darwin,Northern Territory,Australia,
-12.4121,130.9669,Darwin,Northern Territory,Australia,
-13.0545,131.0252,Adelaide River,Northern Territory,Australia,
-11.0468,132.9791,Pacific Ocean,"Coordinates: -11.05°, 132.98°",Remote Area,
-12.7164,131.8206,Pacific Ocean,"Coordinates: -12.72°, 131.82°",Remote Area,
-12.635,130.3725,Pacific Ocean,"Coordinates: -12.63°, 130.37°",Remote Area,
-13.0807,130.6927,Pacific Ocean,"Coordinates: -13.08°, 130.69°",Remote Area,
-14.0993,131.8019,Pacific Ocean,"Coordinates: -14.10°, 131.80°",Remote Area,
-12.6827,132.4736,Pacific Ocean,"Coordinates: -12.68°, 132.47°",Remote Area,
-12.3551,130.8857,Darwin,Northern Territory,Australia,
-12.3723,130.8665,Darwin,Northern Territory,Australia,
-11.6502,133.3796,Warruwi,,Australia,West Arnhem Region
-12.0931,134.8919,Milingimbi,,Australia,East Arnhem Region
-12.0569,134.2339,Gunbalanya,,Australia,West Arnhem Region
-12.1924,136.6844,Nhulunbuy,,Australia,East Arnhem Region
-12.2561,136.8979,Yirrkala,,Australia,East Arnhem Region
-12.2741,136.8203,Pacific Ocean,"Coordinates: -12.27°, 136.82°",Remote Area,
-12.2609,136.8391,Pacific Ocean,"Coordinates: -12.26°, 136.84°",Remote Area,
-12.1939,136.7637,Nhulunbuy,,Australia,East Arnhem Region
-12.5013,135.8001,Gapuwiyak,,Australia,East Arnhem Region
-11.9971,135.5726,Galiwinku,,Australia,East Arnhem Region
-13.9747,136.4631,Angurugu,,Australia,Groote Archipelago Region
-13.9521,133.9637,Pacific Ocean,"Coordinates: -13.95°, 133.96°",Remote Area,
-14.1394,134.4742,Pacific Ocean,"Coordinates: -14.14°, 134.47°",Remote Area,
-14.823,133.7013,Pacific Ocean,"Coordinates: -14.82°, 133.70°",Remote Area,
-16.1891,133.3286,Pacific Ocean,"Coordinates: -16.19°, 133.33°",Remote Area,
-14.923,133.132,Mataranka,,Australia,Roper Gulf Region
-15.5748,133.2138,Pacific Ocean,"Coordinates: -15.57°, 133.21°",Remote Area,
-15.8326,133.4008,Pacific Ocean,"Coordinates: -15.83°, 133.40°",Remote Area,
-15.8087,134.1477,Pacific Ocean,"Coordinates: -15.81°, 134.15°",Remote Area,
-16.2636,133.3782,Pacific Ocean,"Coordinates: -16.26°, 133.38°",Remote Area,
-13.6714,134.3414,Bulman,,Australia,Roper Gulf Region
-16.455,134.6504,Pacific Ocean,"Coordinates: -16.45°, 134.65°",Remote Area,
-14.0409,134.0945,Pacific Ocean,"Coordinates: -14.04°, 134.09°",Remote Area,
-15.527,132.6533,Pacific Ocean,"Coordinates: -15.53°, 132.65°",Remote Area,
-15.9179,132.3831,Pacific Ocean,"Coordinates: -15.92°, 132.38°",Remote Area,
-14.924,133.0624,Mataranka,,Australia,Roper Gulf Region
-14.8384,132.9678,Pacific Ocean,"Coordinates: -14.84°, 132.97°",Remote Area,
-15.0041,133.077,Mataranka,,Australia,Roper Gulf Region
-14.8528,134.036,Pacific Ocean,"Coordinates: -14.85°, 134.04°",Remote Area,
-15.2712,132.9127,Pacific Ocean,"Coordinates: -15.27°, 132.91°",Remote Area,
-14.134,133.1094,Pacific Ocean,"Coordinates: -14.13°, 133.11°",Remote Area,
-14.9147,133.127,Pacific Ocean,"Coordinates: -14.91°, 133.13°",Remote Area,
-13.8269,133.3277,Pacific Ocean,"Coordinates: -13.83°, 133.33°",Remote Area,
-14.5264,132.8006,Barunga,,Australia,Roper Gulf Region
-14.2573,133.5942,Pacific Ocean,"Coordinates: -14.26°, 133.59°",Remote Area,
-14.3295,133.1176,Pacific Ocean,"Coordinates: -14.33°, 133.12°",Remote Area,
-16.9756,135.8132,Pacific Ocean,"Coordinates: -16.98°, 135.81°",Remote Area,
-15.7426,136.8192,Pacific Ocean,"Coordinates: -15.74°, 136.82°",Remote Area,
-16.4423,136.076,McArthur River Mine,,Australia,Roper Gulf Region
-17.2314,137.3308,Pacific Ocean,"Coordinates: -17.23°, 137.33°",Remote Area,
-17.2122,137.9462,Pacific Ocean,"Coordinates: -17.21°, 137.95°",Remote Area,
-19.1385,137.8736,Pacific Ocean,"Coordinates: -19.14°, 137.87°",Remote Area,
-16.4475,135.2167,Pacific Ocean,"Coordinates: -16.45°, 135.22°",Remote Area,
-15.5789,135.4271,Pacific Ocean,"Coordinates: -15.58°, 135.43°",Remote Area,
-16.0757,136.3041,Borroloola,,Australia,Roper Gulf Region
-15.6293,136.3881,Pacific Ocean,"Coordinates: -15.63°, 136.39°",Remote Area,
-14.1055,133.3422,Pacific Ocean,"Coordinates: -14.11°, 133.34°",Remote Area,
-15.9332,136.4778,Pacific Ocean,"Coordinates: -15.93°, 136.48°",Remote Area,
-16.2566,131.7531,Pacific Ocean,"Coordinates: -16.26°, 131.75°",Remote Area,
-16.4833,130.6167,Pacific Ocean,"Coordinates: -16.48°, 130.62°",Remote Area,
-17.0365,131.2941,Pacific Ocean,"Coordinates: -17.04°, 131.29°",Remote Area,
-15.2085,129.4502,Pacific Ocean,"Coordinates: -15.21°, 129.45°",Remote Area,
-16.6652,131.7642,Pacific Ocean,"Coordinates: -16.67°, 131.76°",Remote Area,
-15.4667,129.7675,Pacific Ocean,"Coordinates: -15.47°, 129.77°",Remote Area,
-15.6844,130.0098,Bulla,Victoria Daly Region,Australia,
-16.6346,129.3282,Pacific Ocean,"Coordinates: -16.63°, 129.33°",Remote Area,
-15.7372,131.5345,Pacific Ocean,"Coordinates: -15.74°, 131.53°",Remote Area,
-15.3482,130.2763,Pacific Ocean,"Coordinates: -15.35°, 130.28°",Remote Area,
-16.0498,129.2649,Pacific Ocean,"Coordinates: -16.05°, 129.26°",Remote Area,
-16.4583,129.0058,Rosewood,Victoria Daly Region,Australia,
-16.403,131.0145,Pacific Ocean,"Coordinates: -16.40°, 131.01°",Remote Area,
-16.3896,131.5573,Pacific Ocean,"Coordinates: -16.39°, 131.56°",Remote Area,
-18.3325,130.6358,Lajamanu,Central Desert Region,Australia,
-17.9041,130.2268,Pacific Ocean,"Coordinates: -17.90°, 130.23°",Remote Area,
-17.8484,129.6361,Pacific Ocean,"Coordinates: -17.85°, 129.64°",Remote Area,
-17.3871,131.1166,Pacific Ocean,"Coordinates: -17.39°, 131.12°",Remote Area,
-16.1176,130.9558,Pacific Ocean,"Coordinates: -16.12°, 130.96°",Remote Area,
-15.6614,130.4808,Timber Creek,Victoria Daly Region,Australia,
-15.97,129.0407,Pacific Ocean,"Coordinates: -15.97°, 129.04°",Remote Area,
-17.8581,130.8841,Lajamanu,Victoria Daly Region,Australia,
-17.3354,129.2892,Pacific Ocean,"Coordinates: -17.34°, 129.29°",Remote Area,
-18.3902,129.4299,Pacific Ocean,"Coordinates: -18.39°, 129.43°",Remote Area,
-19.2798,129.9422,Pacific Ocean,"Coordinates: -19.28°, 129.94°",Remote Area,
-16.3541,131.5147,Pacific Ocean,"Coordinates: -16.35°, 131.51°",Remote Area,
-16.9818,130.5599,Pacific Ocean,"Coordinates: -16.98°, 130.56°",Remote Area,
-17.6129,130.0713,Pacific Ocean,"Coordinates: -17.61°, 130.07°",Remote Area,
-16.9567,130.5675,Pacific Ocean,"Coordinates: -16.96°, 130.57°",Remote Area,
-16.8525,131.1597,Pacific Ocean,"Coordinates: -16.85°, 131.16°",Remote Area,
-13.8345,131.1872,Pacific Ocean,"Coordinates: -13.83°, 131.19°",Remote Area,
-14.4589,132.2572,Katherine,Northern Territory,Australia,
-14.4437,132.2737,Katherine,Northern Territory,Australia,
-14.2,130.9,Pacific Ocean,"Coordinates: -14.20°, 130.90°",Remote Area,
-13.3275,133.0861,Pacific Ocean,"Coordinates: -13.33°, 133.09°",Remote Area,
-14.4741,132.3053,Katherine,Northern Territory,Australia,
-13.7447,130.4935,Pacific Ocean,"Coordinates: -13.74°, 130.49°",Remote Area,
-15.2869,131.5816,Pacific Ocean,"Coordinates: -15.29°, 131.58°",Remote Area,
-14.3731,132.1566,Katherine,Northern Territory,Australia,
-14.5229,132.3826,Katherine,Northern Territory,Australia,
-13.8241,131.8372,Pine Creek,Northern Territory,Australia,
-14.8648,131.8443,Pacific Ocean,"Coordinates: -14.86°, 131.84°",Remote Area,
-14.4995,131.3469,Pacific Ocean,"Coordinates: -14.50°, 131.35°",Remote Area,
-14.0106,132.2084,Pacific Ocean,"Coordinates: -14.01°, 132.21°",Remote Area,
-14.2495,129.5282,Wadeye,,Australia,West Daly Region
-15.7442,131.9182,Pacific Ocean,"Coordinates: -15.74°, 131.92°",Remote Area,
-14.1243,132.6378,Pacific Ocean,"Coordinates: -14.12°, 132.64°",Remote Area,
-14.3202,132.4226,Katherine,Northern Territory,Australia,
-13.9487,131.3191,Pacific Ocean,"Coordinates: -13.95°, 131.32°",Remote Area,
-13.8242,131.8321,Pine Creek,Northern Territory,Australia,
-14.254,132.7357,Pacific Ocean,"Coordinates: -14.25°, 132.74°",Remote Area,
-14.1882,132.3961,Pacific Ocean,"Coordinates: -14.19°, 132.40°",Remote Area,
-14.3148,132.4248,Katherine,Northern Territory,Australia,
-14.3055,132.0772,Katherine,Northern Territory,Australia,
-14.1084,132.9004,Pacific Ocean,"Coordinates: -14.11°, 132.90°",Remote Area,
-20.502,137.7744,Pacific Ocean,"Coordinates: -20.50°, 137.77°",Remote Area,
-20.0298,137.4906,Avon Downs,Barkly Region,Australia,
-18.4336,133.8774,Pacific Ocean,"Coordinates: -18.43°, 133.88°",Remote Area,
-18.9485,135.1934,Pacific Ocean,"Coordinates: -18.95°, 135.19°",Remote Area,
-20.0518,137.018,Pacific Ocean,"Coordinates: -20.05°, 137.02°",Remote Area,
-18.0014,134.8618,Pacific Ocean,"Coordinates: -18.00°, 134.86°",Remote Area,
-18.637,135.945,Pacific Ocean,"Coordinates: -18.64°, 135.94°",Remote Area,
-19.0579,136.7066,Pacific Ocean,"Coordinates: -19.06°, 136.71°",Remote Area,
-17.6744,134.251,Pacific Ocean,"Coordinates: -17.67°, 134.25°",Remote Area,
-18.8689,134.4991,Pacific Ocean,"Coordinates: -18.87°, 134.50°",Remote Area,
-18.8055,137.0872,Pacific Ocean,"Coordinates: -18.81°, 137.09°",Remote Area,
-17.5521,133.5407,Elliott,Barkly Region,Australia,
-19.6423,134.1833,Tennant Creek,Barkly Region,Australia,
-19.933,134.3548,Pacific Ocean,"Coordinates: -19.93°, 134.35°",Remote Area,
-17.7839,135.6627,Pacific Ocean,"Coordinates: -17.78°, 135.66°",Remote Area,
-23.1273,133.836,Pacific Ocean,"Coordinates: -23.13°, 133.84°",Remote Area,
-22.3847,133.0518,Pacific Ocean,"Coordinates: -22.38°, 133.05°",Remote Area,
-24.2691,134.4028,Santa Teresa,,Australia,Macdonnell Region
-25.9551,133.2111,Pacific Ocean,"Coordinates: -25.96°, 133.21°",Remote Area,
-25.3139,131.7571,Pacific Ocean,"Coordinates: -25.31°, 131.76°",Remote Area,
-23.2837,134.4229,Pacific Ocean,"Coordinates: -23.28°, 134.42°",Remote Area,
-21.5317,133.8901,Pacific Ocean,"Coordinates: -21.53°, 133.89°",Remote Area,
-22.2562,131.8017,Yuendumu,Central Desert Region,Australia,
-23.9409,132.7824,Hermannsburg,,Australia,Macdonnell Region
-22.0496,132.4948,Pacific Ocean,"Coordinates: -22.05°, 132.49°",Remote Area,
-20.5003,134.662,Pacific Ocean,"Coordinates: -20.50°, 134.66°",Remote Area,
-22.6459,133.3457,Pacific Ocean,"Coordinates: -22.65°, 133.35°",Remote Area,
-20.1883,130.0161,Pacific Ocean,"Coordinates: -20.19°, 130.02°",Remote Area,
-22.8953,135.4595,Pacific Ocean,"Coordinates: -22.90°, 135.46°",Remote Area,
-22.2984,130.8499,Pacific Ocean,"Coordinates: -22.30°, 130.85°",Remote Area,
-22.8031,137.2965,Pacific Ocean,"Coordinates: -22.80°, 137.30°",Remote Area,
-23.8757,133.4704,Pacific Ocean,"Coordinates: -23.88°, 133.47°",Remote Area,
-24.0137,135.4268,Pacific Ocean,"Coordinates: -24.01°, 135.43°",Remote Area,
-21.6743,136.6654,Pacific Ocean,"Coordinates: -21.67°, 136.67°",Remote Area,
-21.7498,135.2382,Pacific Ocean,"Coordinates: -21.75°, 135.24°",Remote Area,
-23.7951,133.889,Alice Springs,Northern Territory,Australia,
-23.4564,134.6849,Pacific Ocean,"Coordinates: -23.46°, 134.68°",Remote Area,
-25.4108,135.2906,Pacific Ocean,"Coordinates: -25.41°, 135.29°",Remote Area,
-23.1725,132.1498,Pacific Ocean,"Coordinates: -23.17°, 132.15°",Remote Area,
-22.9494,136.1442,Pacific Ocean,"Coordinates: -22.95°, 136.14°",Remote Area,
-25.8428,133.3027,Kulgera,,Australia,Macdonnell Region
-22.1305,132.0812,Pacific Ocean,"Coordinates: -22.13°, 132.08°",Remote Area,
-21.0434,134.6752,Imangara,Barkly Region,Australia,
-23.3292,135.44,Pacific Ocean,"Coordinates: -23.33°, 135.44°",Remote Area,
-22.7228,131.1685,Pacific Ocean,"Coordinates: -22.72°, 131.17°",Remote Area,
-23.5943,134.4887,Pacific Ocean,"Coordinates: -23.59°, 134.49°",Remote Area,
-24.1313,134.3737,Santa Teresa,,Australia,Macdonnell Region
-23.8398,134.5089,Pacific Ocean,"Coordinates: -23.84°, 134.51°",Remote Area,
-23.6938,134.0354,Alice Springs,Northern Territory,Australia,
-22.3961,134.2335,Pacific Ocean,"Coordinates: -22.40°, 134.23°",Remote Area,
-23.7233,133.8792,Alice Springs,Northern Territory,Australia,
-23.5409,133.921,Alice Springs,Northern Territory,Australia,
-24.0636,132.7444,Pacific Ocean,"Coordinates: -24.06°, 132.74°",Remote Area,
-25.1896,130.9737,Yulara,Northern Territory,Australia,
-23.6853,132.6722,Pacific Ocean,"Coordinates: -23.69°, 132.67°",Remote Area,
-25.9054,131.6711,Pacific Ocean,"Coordinates: -25.91°, 131.67°",Remote Area,
-20.5476,130.3466,Twin Hills Village,Central Desert Region,Australia,
-24.1267,133.0848,Pacific Ocean,"Coordinates: -24.13°, 133.08°",Remote Area,
-22.4518,133.6377,Pacific Ocean,"Coordinates: -22.45°, 133.64°",Remote Area,
-24.2914,131.5488,Pacific Ocean,"Coordinates: -24.29°, 131.55°",Remote Area,
-22.9689,134.2415,Pacific Ocean,"Coordinates: -22.97°, 134.24°",Remote Area,
-20.4442,135.2631,Pacific Ocean,"Coordinates: -20.44°, 135.26°",Remote Area,
-25.3602,131.0196,Yulara,Northern Territory,Australia,
-22.2109,134.1182,Pacific Ocean,"Coordinates: -22.21°, 134.12°",Remote Area,
-23.27,129.38,Kintore,,Australia,Macdonnell Region
-20.1824,130.0148,Pacific Ocean,"Coordinates: -20.18°, 130.01°",Remote Area,
-23.6338,132.7311,Pacific Ocean,"Coordinates: -23.63°, 132.73°",Remote Area,
-21.5142,133.9933,Pacific Ocean,"Coordinates: -21.51°, 133.99°",Remote Area,
-23.5232,133.6792,Alice Springs,Northern Territory,Australia,
-20.5338,129.9364,Pacific Ocean,"Coordinates: -20.53°, 129.94°",Remote Area,
-23.5312,134.3743,Pacific Ocean,"Coordinates: -23.53°, 134.37°",Remote Area,
-31.1558,136.8054,Woomera,South Australia,Australia,
-32.3997,137.225,Remote Southern Region,"Coordinates: -32.40°, 137.22°",Remote Area,
-29.9434,134.1506,Pacific Ocean,"Coordinates: -29.94°, 134.15°",Remote Area,
-29.004,134.7564,Coober Pedy,South Australia,Australia,
-31.2609,135.2374,Remote Southern Region,"Coordinates: -31.26°, 135.24°",Remote Area,
-31.9956,134.8829,Remote Southern Region,"Coordinates: -32.00°, 134.88°",Remote Area,
-31.7397,135.1722,Remote Southern Region,"Coordinates: -31.74°, 135.17°",Remote Area,
-29.8409,134.9035,Pacific Ocean,"Coordinates: -29.84°, 134.90°",Remote Area,
-30.0047,136.0445,Remote Southern Region,"Coordinates: -30.00°, 136.04°",Remote Area,
-30.1809,135.6629,Remote Southern Region,"Coordinates: -30.18°, 135.66°",Remote Area,
-30.2406,133.9885,Remote Southern Region,"Coordinates: -30.24°, 133.99°",Remote Area,
-32.5226,136.4926,Remote Southern Region,"Coordinates: -32.52°, 136.49°",Remote Area,
-32.1572,135.0722,Remote Southern Region,"Coordinates: -32.16°, 135.07°",Remote Area,
-31.4831,137.4805,Remote Southern Region,"Coordinates: -31.48°, 137.48°",Remote Area,
-31.6338,137.6218,Remote Southern Region,"Coordinates: -31.63°, 137.62°",Remote Area,
-27.1391,134.7575,Pacific Ocean,"Coordinates: -27.14°, 134.76°",Remote Area,
-32.3792,135.5247,Remote Southern Region,"Coordinates: -32.38°, 135.52°",Remote Area,
-32.1232,137.1505,Remote Southern Region,"Coordinates: -32.12°, 137.15°",Remote Area,
-29.8113,133.3603,Pacific Ocean,"Coordinates: -29.81°, 133.36°",Remote Area,
-30.449,137.1692,Andamooka,South Australia,Australia,
-32.4398,136.0671,Remote Southern Region,"Coordinates: -32.44°, 136.07°",Remote Area,
-28.2415,134.9899,Pacific Ocean,"Coordinates: -28.24°, 134.99°",Remote Area,
-26.7134,135.0782,Pacific Ocean,"Coordinates: -26.71°, 135.08°",Remote Area,
-31.7646,135.6494,Remote Southern Region,"Coordinates: -31.76°, 135.65°",Remote Area,
-27.315,133.2979,Mintabie,South Australia,Australia,
-29.0347,134.7222,Coober Pedy,South Australia,Australia,
-26.2085,133.8545,Pacific Ocean,"Coordinates: -26.21°, 133.85°",Remote Area,
-30.4829,136.8772,Andamooka,South Australia,Australia,
-26.2635,132.1771,Pacific Ocean,"Coordinates: -26.26°, 132.18°",Remote Area,
-30.7051,134.5786,Remote Southern Region,"Coordinates: -30.71°, 134.58°",Remote Area,
-26.9086,134.058,Pacific Ocean,"Coordinates: -26.91°, 134.06°",Remote Area,
-28.8921,136.1688,Coober Pedy,South Australia,Australia,
-31.0939,138.6786,Remote Southern Region,"Coordinates: -31.09°, 138.68°",Remote Area,
-30.066,138.2739,Remote Southern Region,"Coordinates: -30.07°, 138.27°",Remote Area,
-28.3724,139.9724,Pacific Ocean,"Coordinates: -28.37°, 139.97°",Remote Area,
-27.724,140.7633,Innamincka,South Australia,Australia,
-30.9904,138.5787,Remote Southern Region,"Coordinates: -30.99°, 138.58°",Remote Area,
-29.239,137.9058,Pacific Ocean,"Coordinates: -29.24°, 137.91°",Remote Area,
-30.9372,138.8919,Remote Southern Region,"Coordinates: -30.94°, 138.89°",Remote Area,
-27.5553,135.4456,Oodnadatta,South Australia,Australia,
-31.1278,138.9618,Remote Southern Region,"Coordinates: -31.13°, 138.96°",Remote Area,
-30.0213,138.0424,Remote Southern Region,"Coordinates: -30.02°, 138.04°",Remote Area,
-30.4132,139.4198,Remote Southern Region,"Coordinates: -30.41°, 139.42°",Remote Area,
-29.0175,138.4606,Birdsville,South Australia,Australia,Diamantina Shire
-26.0702,135.2471,Pacific Ocean,"Coordinates: -26.07°, 135.25°",Remote Area,
-29.2781,138.3823,Pacific Ocean,"Coordinates: -29.28°, 138.38°",Remote Area,
-27.7205,138.2548,Pacific Ocean,"Coordinates: -27.72°, 138.25°",Remote Area,
-31.0885,138.7412,Remote Southern Region,"Coordinates: -31.09°, 138.74°",Remote Area,
-31.1881,138.2785,Remote Southern Region,"Coordinates: -31.19°, 138.28°",Remote Area,
-30.311,139.3357,Arkaroola Village,South Australia,Australia,
-30.8718,140.971,Remote Southern Region,"Coordinates: -30.87°, 140.97°",Remote Area,
-30.5963,138.4219,Leigh Creek,South Australia,Australia,
-27.6908,140.1066,Pacific Ocean,"Coordinates: -27.69°, 140.11°",Remote Area,
-31.0086,138.2294,Remote Southern Region,"Coordinates: -31.01°, 138.23°",Remote Area,
-29.1266,140.9018,Pacific Ocean,"Coordinates: -29.13°, 140.90°",Remote Area,
-30.8406,138.3224,Remote Southern Region,"Coordinates: -30.84°, 138.32°",Remote Area,
-28.0997,140.1956,Pacific Ocean,"Coordinates: -28.10°, 140.20°",Remote Area,
-27.5347,140.4736,Innamincka,South Australia,Australia,
-29.6587,138.0684,Marree,South Australia,Australia,
-29.9565,138.3411,Pacific Ocean,"Coordinates: -29.96°, 138.34°",Remote Area,
-29.7138,137.9017,Pacific Ocean,"Coordinates: -29.71°, 137.90°",Remote Area,
-29.9062,139.7345,Pacific Ocean,"Coordinates: -29.91°, 139.73°",Remote Area,
-30.2883,138.3525,Lyndhurst,South Australia,Australia,
-33.9118,136.5697,Arno Bay,South Australia,Australia,The District Council of Cleve
-31.831,132.6262,Remote Southern Region,"Coordinates: -31.83°, 132.63°",Remote Area,
-34.0586,135.5036,Remote Southern Region,"Coordinates: -34.06°, 135.50°",Remote Area,
-33.1217,137.2273,Remote Southern Region,"Coordinates: -33.12°, 137.23°",Remote Area,
-34.1003,135.8415,Remote Southern Region,"Coordinates: -34.10°, 135.84°",Remote Area,
-32.1267,133.6725,Ceduna,South Australia,Australia,
-32.1297,133.6976,Ceduna,South Australia,Australia,
-33.7011,136.4937,Cleve,South Australia,Australia,The District Council of Cleve
-34.6266,135.6992,Port Lincoln,South Australia,Australia,
-34.3853,135.4697,Coulta,South Australia,Australia,The District Council of Lower Eyre Peninsula
-33.6772,136.9116,Cowell,South Australia,Australia,
-34.2644,135.7266,Cummins,South Australia,Australia,The District Council of Lower Eyre Peninsula
-33.4678,136.2113,Darke Peak,South Australia,Australia,The District Council of Cleve
-32.868,137.0029,Remote Southern Region,"Coordinates: -32.87°, 137.00°",Remote Area,
-31.9674,133.7658,Ceduna,South Australia,Australia,
-32.7324,137.1505,Iron Knob,South Australia,Australia,
-32.7357,134.9709,Minnipa,South Australia,Australia,
-33.1861,136.559,Kimba,South Australia,Australia,
-33.1414,136.4125,Kimba,South Australia,Australia,
-33.1332,135.5552,Kyancutta,South Australia,Australia,
-33.9534,135.2682,Remote Southern Region,"Coordinates: -33.95°, 135.27°",Remote Area,
-33.5679,135.7571,Lock,South Australia,Australia,
-32.0723,133.9401,Ceduna,South Australia,Australia,
-34.1201,136.1609,Tumby Bay,South Australia,Australia,
-32.8537,135.1542,Minnipa,South Australia,Australia,
-33.0314,134.7015,Remote Southern Region,"Coordinates: -33.03°, 134.70°",Remote Area,
-33.4839,135.1592,Remote Southern Region,"Coordinates: -33.48°, 135.16°",Remote Area,
-32.9916,135.5482,Wudinna,South Australia,Australia,
-33.2122,137.3623,Whyalla,South Australia,Australia,
-31.7782,132.2038,Yalata,South Australia,Australia,
-31.932,133.0056,Penong,South Australia,Australia,
-33.6501,134.888,Elliston,South Australia,Australia,
-34.6017,135.8732,Port Lincoln,South Australia,Australia,
-32.3752,133.9353,Smoky Bay,South Australia,Australia,
-32.7963,134.2116,Streaky Bay,South Australia,Australia,
-33.043,135.4519,Wudinna,South Australia,Australia,
-34.3756,136.1026,Tumby Bay,South Australia,Australia,
-34.1806,136.049,Tumby Bay,South Australia,Australia,
-33.3173,136.2515,Kimba,South Australia,Australia,
-33.2421,135.5978,Remote Southern Region,"Coordinates: -33.24°, 135.60°",Remote Area,
-34.2617,136.2092,Tumby Bay,South Australia,Australia,
-32.4035,134.5323,Wirrulla,South Australia,Australia,
-33.6824,136.6831,Cowell,South Australia,Australia,
-32.9475,135.2754,Remote Southern Region,"Coordinates: -32.95°, 135.28°",Remote Area,
-34.1413,135.73,Yeelanna,South Australia,Australia,The District Council of Lower Eyre Peninsula
-33.1567,135.8668,Kyancutta,South Australia,Australia,
-34.3494,135.8979,Tumby Bay,South Australia,Australia,
-31.4492,130.8976,Remote Southern Region,"Coordinates: -31.45°, 130.90°",Remote Area,
-34.5911,135.7572,Port Lincoln,South Australia,Australia,
-33.965,136.2472,Remote Southern Region,"Coordinates: -33.97°, 136.25°",Remote Area,
-30.1591,131.579,Remote Southern Region,"Coordinates: -30.16°, 131.58°",Remote Area,
-35.3365,136.1174,Remote Southern Region,"Coordinates: -35.34°, 136.12°",Remote Area,
-33.7081,136.5026,Cleve,South Australia,Australia,The District Council of Cleve
-33.1087,137.1737,Remote Southern Region,"Coordinates: -33.11°, 137.17°",Remote Area,
-32.5086,134.2138,Remote Southern Region,"Coordinates: -32.51°, 134.21°",Remote Area,
-33.0539,137.5205,Whyalla,South Australia,Australia,
-34.8344,135.6975,Port Lincoln,South Australia,Australia,
-34.5424,135.6997,Port Lincoln,South Australia,Australia,
-33.1697,134.6917,Remote Southern Region,"Coordinates: -33.17°, 134.69°",Remote Area,
-31.4817,131.84,Yalata,South Australia,Australia,
-33.6993,135.9238,Remote Southern Region,"Coordinates: -33.70°, 135.92°",Remote Area,
-33.5733,135.602,Lock,South Australia,Australia,
-32.2811,134.4714,Remote Southern Region,"Coordinates: -32.28°, 134.47°",Remote Area,
-33.0981,135.3531,Wudinna,South Australia,Australia,
-34.1361,135.3319,Remote Southern Region,"Coordinates: -34.14°, 135.33°",Remote Area,
-32.921,135.9996,Remote Southern Region,"Coordinates: -32.92°, 136.00°",Remote Area,
-33.7234,136.1511,Remote Southern Region,"Coordinates: -33.72°, 136.15°",Remote Area,
-34.0386,136.0107,Remote Southern Region,"Coordinates: -34.04°, 136.01°",Remote Area,
-33.3416,136.7518,Remote Southern Region,"Coordinates: -33.34°, 136.75°",Remote Area,
-31.9661,133.3316,Remote Southern Region,"Coordinates: -31.97°, 133.33°",Remote Area,
-33.6125,136.3722,Remote Southern Region,"Coordinates: -33.61°, 136.37°",Remote Area,
-32.5534,136.7123,Remote Southern Region,"Coordinates: -32.55°, 136.71°",Remote Area,
-34.6252,135.4725,Coffin Bay,South Australia,Australia,The District Council of Lower Eyre Peninsula
-33.7516,135.1863,Remote Southern Region,"Coordinates: -33.75°, 135.19°",Remote Area,
-32.9004,136.1858,Remote Southern Region,"Coordinates: -32.90°, 136.19°",Remote Area,
-34.3749,135.3741,Coulta,South Australia,Australia,The District Council of Lower Eyre Peninsula
-34.5993,135.8784,Port Lincoln,South Australia,Australia,
-33.0267,136.3171,Kimba,South Australia,Australia,
-32.8427,135.1515,Minnipa,South Australia,Australia,
-33.4138,136.5989,Remote Southern Region,"Coordinates: -33.41°, 136.60°",Remote Area,
-32.5091,137.7144,Port Augusta,South Australia,Australia,
-34.344,136.0471,Tumby Bay,South Australia,Australia,
-33.5879,134.8859,Elliston,South Australia,Australia,
-34.7405,135.845,Port Lincoln,South Australia,Australia,
-33.231,135.4095,Wudinna,South Australia,Australia,
-33.8189,135.4857,Remote Southern Region,"Coordinates: -33.82°, 135.49°",Remote Area,
-32.9392,135.078,Minnipa,South Australia,Australia,
-33.7412,135.0804,Elliston,South Australia,Australia,
-32.9232,136.4778,Kimba,South Australia,Australia,
-33.0524,138.4277,Appila,South Australia,Australia,The District Council of Mount Remarkable
-32.2507,137.9776,Remote Southern Region,"Coordinates: -32.25°, 137.98°",Remote Area,
-32.8247,138.6907,Peterborough,South Australia,Australia,
-32.881,138.3519,Booleroo Centre,South Australia,Australia,The District Council of Mount Remarkable
-32.4618,138.2004,Remote Southern Region,"Coordinates: -32.46°, 138.20°",Remote Area,
-32.4244,138.5304,Carrieton,South Australia,Australia,
-32.0695,138.4948,Cradock,South Australia,Australia,
-32.7053,138.7796,Peterborough,South Australia,Australia,
-32.5373,138.5626,Remote Southern Region,"Coordinates: -32.54°, 138.56°",Remote Area,
-32.8037,138.9218,Peterborough,South Australia,Australia,
-31.8846,138.435,Hawker,South Australia,Australia,
-31.8777,138.8372,Remote Southern Region,"Coordinates: -31.88°, 138.84°",Remote Area,
-32.8294,138.1907,Melrose,South Australia,Australia,The District Council of Mount Remarkable
-32.7654,138.5055,Remote Southern Region,"Coordinates: -32.77°, 138.51°",Remote Area,
-32.4683,138.0159,Port Augusta,South Australia,Australia,
-32.8776,139.0578,Peterborough,South Australia,Australia,
-32.7335,138.6135,Orroroo,South Australia,Australia,
-32.9737,138.8375,Peterborough,South Australia,Australia,
-33.0216,138.0002,Port Pirie,South Australia,Australia,
-32.3538,138.0371,Port Augusta,South Australia,Australia,
-32.8454,138.2116,Melrose,South Australia,Australia,The District Council of Mount Remarkable
-32.9495,138.5174,Peterborough,South Australia,Australia,
-31.775,138.6529,Hawker,South Australia,Australia,
-32.6923,138.3247,Remote Southern Region,"Coordinates: -32.69°, 138.32°",Remote Area,
-32.6521,138.1003,Wilmington,South Australia,Australia,The District Council of Mount Remarkable
-31.9883,138.3424,Hawker,South Australia,Australia,
-33.0338,138.2686,Port Pirie,South Australia,Australia,
-33.0856,138.2211,Port Pirie,South Australia,Australia,
-32.552,138.8688,Remote Southern Region,"Coordinates: -32.55°, 138.87°",Remote Area,
-32.0545,138.6427,Cradock,South Australia,Australia,
